{"Paragon Outlets Livermore Valley": {"formatted_address": "2774 Livermore Outlets Dr, Livermore, CA 94551, USA", "geometry": {"location": {"lat": 37.69956130000001, "lng": -121.8452212}, "viewport": {"northeast": {"lat": 37.70256025, "lng": -121.84091245}, "southwest": {"lat": 37.69570564999999, "lng": -121.84665745}}}, "icon": "https://maps.gstatic.com/mapfiles/place_api/icons/shopping-71.png", "id": "ae0aa0080048b18557943b4a8e7480785fda08e2", "name": "San Francisco Premium Outlets", "opening_hours": {"open_now": true, "weekday_text": []}, "photos": [{"height": 607, "html_attributions": ["<a href=\"https://maps.google.com/maps/contrib/115514190636586971179/photos\">San Francisco Premium Outlets</a>"], "photo_reference": "CmRaAAAAkfXVp9SbRK0Ju9zoAXdZssj7mqWURNDVdcxPte1y90Wn6YrBdzh16Ea75cJRVVCHCsiWyKvX4tXxuG6lXNBPXnUsO-mhimGB1afkV_BmZ04nPGNf53oGfcQrII9uH3dUEhBC_MMXih0wgusAUr2oFz1TGhSs-4O3NO7D8MCgebZsK0W1fm6xpQ", "width": 1079}], "place_id": "ChIJq-Dg-zt444kRuM2iph02c00", "rating": 4.3, "reference": "CmRbAAAA1JD-IDfDLqaUcZsJRhXRHWFbCO34lB1rD86c1jyCNCxuUFmVieIkFmoAjJednmh2fDokuMGdZT26BnlYp4ZU_orOHrUuO2IOSpQhtvp-xrdZShfiU2YOH6piDoKnW574EhA4BIxJZwvm21aD-Dw5725NGhQJaPRdnTrHJVrR8R4hCg_m5dafqQ", "types": ["shopping_mall", "point_of_interest", "establishment"]}, "Centennial Light Bulb": null, "Ravenswood Historic Site": {"formatted_address": "2647 Arroyo Rd, Livermore, CA 94550, USA", "geometry": {"location": {"lat": 37.6523894, "lng": -121.7701488}, "viewport": {"northeast": {"lat": 37.65373607989273, "lng": -121.7671734}, "southwest": {"lat": 37.65103642010728, "lng": -121.7711406}}}, "icon": "https://maps.gstatic.com/mapfiles/place_api/icons/generic_business-71.png", "id": "90c9569ffd0a33c7301cb1a652dfadddc4470791", "name": "Ravenswood Historical Site", "opening_hours": {"open_now": true, "weekday_text": []}, "photos": [{"height": 4128, "html_attributions": ["<a href=\"https://maps.google.com/maps/contrib/111066202434210520062/photos\">MyRealtorBroker Stephen Miller</a>"], "photo_reference": "CmRaAAAAKijfbRJsiYJ6FqPzbo4juMq0__tPeZt7xIX59f1noe1YTfSRqWZR6KOjb-0Bs0G7LGnx4eXhanc3kxOGB6YK5EyqhbHkNDGWqETnhfDxesHQ58yMfAeUo1Eqrbd3-XlTEhAqwxcITY8zKsplHPocQzoKGhRA6Yyz2bI5a0jVFQLV-tIPO7qGVw", "width": 2322}], "place_id": "ChIJgUYTJHfdj4AR7D8LhfYy77I", "rating": 4.2, "reference": "CmRbAAAADS19L-ird89qvS7f8rFG97OWGr8Fw75wYgMZqUOrWGzFB1eHFCUbVX4YHTN8Ro2S5D7E_J8PSF7BObP6wZn_feClHd4WmbJWD7cUwshaA2nh_KkyfTSgOOaS1mI8nHDXEhBtlFuq3uy2yqu-42sBY4LaGhRUhzECZkq2S6XT3lFh7ztVGw-6ng", "types": ["point_of_interest", "establishment"]}, "Rodrigue Molyneaux Estate Winery & Vineyard": {"formatted_address": "3053 Marina Ave, Livermore, CA 94550, USA", "geometry": {"location": {"lat": 37.6543796, "lng": -121.7572099}, "viewport": {"northeast": {"lat": 37.65572942989272, "lng": -121.7558600701073}, "southwest": {"lat": 37.65302977010727, "lng": -121.7585597298927}}}, "icon": "https://maps.gstatic.com/mapfiles/place_api/icons/generic_business-71.png", "id": "59a3c450cec8d84decde19f37502796e404b38a7", "name": "Rodrigue Molyneaux Winery", "opening_hours": {"open_now": false, "weekday_text": []}, "photos": [{"height": 3984, "html_attributions": ["<a href=\"https://maps.google.com/maps/contrib/103788992634982202380/photos\">Shanelle Robinson</a>"], "photo_reference": "CmRaAAAAtI4E9g2WDxOAMsa9tTywe7DDTLJBnMTzfkJV1HZhXvpHZ7maXxl2odr7g_VbdLDoklIqEoPRBHe4WBU2IhCs03G9VGD6tdHbaYGmPEKr7KaPoru4L1Pefic2bXB-dcHYEhBZzeQXe7C09q7FZJ3WS5NSGhQLCcBTOLgvKgON9uojahtDx14Gnw", "width": 2988}], "place_id": "ChIJPZI2Bpvdj4AR94u8z7J7EOQ", "rating": 5, "reference": "CmRbAAAAPyAdNE5b9VNk8w3FvXq8vSKPFiPAw4wlnrHByaXLA5JwuT65jHRtDYt6Skcl9RmTOunAJ7wmAlzMpRz26upXIXojzBG6BjQqAmx21sTpY-wRrq5rijLHQU5f07gq74kuEhArcSJeDdHdipdVmBKoez66GhThSLWdFkKM5jBt5NJcxiN6XSQd_w", "types": ["food", "point_of_interest", "establishment"]}, "White Crane Winery": {"formatted_address": "5405 Greenville Rd, Livermore, CA 94550, USA", "geometry": {"location": {"lat": 37.649913, "lng": -121.6969956}, "viewport": {"northeast": {"lat": 37.65126277989272, "lng": -121.6954513701073}, "southwest": {"lat": 37.64856312010728, "lng": -121.6981510298927}}}, "icon": "https://maps.gstatic.com/mapfiles/place_api/icons/generic_business-71.png", "id": "e9802e3c1378afe0dd8fc32acea47d69cbad9712", "name": "White Crane Winery", "opening_hours": {"open_now": true, "weekday_text": []}, "photos": [{"height": 3072, "html_attributions": ["<a href=\"https://maps.google.com/maps/contrib/118284528297749570654/photos\">kelly hu</a>"], "photo_reference": "CmRaAAAAYPYqiQgIFf7QHv6uhkKbQzSRTgZGSNiykXmVPKOHMn5bCjy0fwJWOY2nazawTtqrlZoXY8TV2X2wIwlLmm94bOYmRVwin6o__c_KSCYULA9dzdy46AlJVwE2y8g28rOwEhBHwqB_2gcqH_52tE606udhGhSvggiVTmhunIg9bOG9CICTSas5fQ", "width": 4096}], "place_id": "ChIJ0WVXKl7ej4ARZB17-Q1GVKg", "rating": 4.7, "reference": "CmRbAAAAgh4QkmuM02LIQFQRFfJW5etXkciJ8VC2OuZeJSX8iRyt0_SNzaenry4OH4QgogmBm1EbbEi-e1TR0wG2ByyTWhHajS8jv9bCAnn4dLUkRYNFrnqkbVJgtCJ0Yd14VTe7EhB6Rh8JjEMXbxVMqFmyqedoGhQPFA0wC3IMgUVXsqOC4tLlswRCyQ", "types": ["food", "point_of_interest", "establishment"]}, "Robertson Park": {"formatted_address": "22 Military Rd, Watsons Bay NSW 2030, Australia", "geometry": {"location": {"lat": -33.8435435, "lng": 151.2829989}, "viewport": {"northeast": {"lat": -33.84188332010727, "lng": 151.2844543798927}, "southwest": {"lat": -33.84458297989271, "lng": 151.2817547201073}}}, "icon": "https://maps.gstatic.com/mapfiles/place_api/icons/generic_recreational-71.png", "id": "6947371dabbcda5e81f48353abf7c5f97f1496fa", "name": "Robertson Park", "opening_hours": {"open_now": true, "weekday_text": []}, "photos": [{"height": 2988, "html_attributions": ["<a href=\"https://maps.google.com/maps/contrib/104157417481007246141/photos\">vasilis petropoulos</a>"], "photo_reference": "CmRaAAAAWfaq3zQfW6W7XvzdZhOfNBLNFySNocsEeFNfOEj074Ji3xarUr9siyZWJLzITYEsuYXJFBteeE3TAt6tXrqje1-B4vuzxuu5Xlf2nuFokzUDWk68Ytj9RPha3EECYA-HEhDHEAIsUmP0dyrvBZU6BigzGhQtguFlUOPw7EZPw7w5nbENOx08xw", "width": 5312}], "place_id": "ChIJe_WjU4qsEmsR4OPx-Wh9AQ8", "rating": 4.3, "reference": "CmRbAAAARGAUnYwVAY_O9AG8gPbYGKrEItSkPv-P2xSVQFrdQ9uM5WWcgHAAkMrWGi9sgEK-V1-aOJpFTDlKVz8zI_QkHfWy6qLKFQ1AR8EjOcCfPEX5ElsNgC9wQf6c1MG1mTNyEhDzJoC-gAa5lJ3qjjoy0jokGhRM9xQnBfDkR3pjrTKrqjC1MCWXng", "types": ["park", "point_of_interest", "establishment"]}, "Las Positas Vineyards": {"formatted_address": "1828 Wetmore Rd, Livermore, CA 94550, USA", "geometry": {"location": {"lat": 37.6458024, "lng": -121.7704979}, "viewport": {"northeast": {"lat": 37.64684187989272, "lng": -121.7691483701073}, "southwest": {"lat": 37.64414222010728, "lng": -121.7718480298927}}}, "icon": "https://maps.gstatic.com/mapfiles/place_api/icons/generic_business-71.png", "id": "07a92c4e129f147cff5ec7e82cd18277963af222", "name": "Las Positas Vineyards", "opening_hours": {"open_now": false, "weekday_text": []}, "photos": [{"height": 2020, "html_attributions": ["<a href=\"https://maps.google.com/maps/contrib/111973644695419224130/photos\">Las Positas Vineyards</a>"], "photo_reference": "CmRaAAAAno0qmkU03QEDGii9VaFX3OIpNdo68YnMa7mw9Ze8LUw1XBIJuPbxN7PajaQ7v7OpcN3zOAcEMsnaVx1AXqfjo4YleEEsfBhxoqvf2JQxFxr7HSvNKxnZckAn3-zIRdxfEhDx2wPxr47hH4ZfR57mrn-2GhT8yIKrCrblwpAx67samIZ0k-CbTQ", "width": 3084}], "place_id": "ChIJCUm2bL_gj4ARbFAbb4theZc", "rating": 4.7, "reference": "CmRbAAAA0LcoCj2XORIn33WsY-xxlwrlKgbGfH1FV-JQ2R7j6mK8uqLAYzs5eCbdgqoF2GFTv3O2ybQochOwJH8pDoZNqlw6TsWUnNVxOpIQILyWu41g0chFTY8w-bc9Gkppmgx3EhDnhKDy7GstKVwQ_PvAwQVvGhTL6AFZuoPT2EFUxDqT7Rho19M_7Q", "types": ["food", "point_of_interest", "establishment"]}, "Les Chenes Estate Vineyards": {"formatted_address": "5562 Victoria Ln, Livermore, CA 94550, USA", "geometry": {"location": {"lat": 37.656244, "lng": -121.663147}, "viewport": {"northeast": {"lat": 37.65760677989272, "lng": -121.6624494701073}, "southwest": {"lat": 37.65490712010727, "lng": -121.6651491298927}}}, "icon": "https://maps.gstatic.com/mapfiles/place_api/icons/generic_business-71.png", "id": "ea9b2aa6f18632fbcc44eab9ec54dfd16001e936", "name": "Les Chenes Estate Vineyards", "permanently_closed": true, "photos": [{"height": 3024, "html_attributions": ["<a href=\"https://maps.google.com/maps/contrib/118166483778773273669/photos\">Toby Deyle</a>"], "photo_reference": "CmRaAAAAAogAbnSQUH9sHnxyksWp_jCTQ0_59I380bJVz-luCDE7ZaT-Q-QAycUNqlxmm4Tstb9Qy-wbh13awPkyOtE2rxKKLC_MHv9Hb24sbcwIPH_1qeZ8IKw0Slraj0SevXKlEhDefiU-bLTRWf6Z3anWdj_oGhQOGEFvtoUSCf8WmTrbCY_vezGfJQ", "width": 4032}], "place_id": "ChIJoymV-Qffj4ARqu4JXBMMIVk", "rating": 4.7, "reference": "CmRbAAAA03HRwE-zGvJwgd3fRIBSmgYUzZLCAlzFMWI-fzPw6SqhflOLjAlHavVf3RIoMNcpfWVubp1o3Sm-wwx0rnduuUZEJw2rUpYodxKPFv9HgO53OqxenoX54SmBwQ_gPuwrEhC52b97--XBWCA7DIG4xHOgGhQ20UsXu8QTvwcE5_CPYc17WXRqWQ", "types": ["food", "point_of_interest", "establishment"]}, "Eckert Estate Winery": {"formatted_address": "5963 Graham Ct D, Livermore, CA 94550, USA", "geometry": {"location": {"lat": 37.6774987, "lng": -121.7199231}, "viewport": {"northeast": {"lat": 37.67900177989272, "lng": -121.7184583701073}, "southwest": {"lat": 37.67630212010728, "lng": -121.7211580298927}}}, "icon": "https://maps.gstatic.com/mapfiles/place_api/icons/generic_business-71.png", "id": "6fde720bcb3ede3ed13ce1ce364fbf385691b112", "name": "Eckert Estate Winery", "opening_hours": {"open_now": false, "weekday_text": []}, "photos": [{"height": 2448, "html_attributions": ["<a href=\"https://maps.google.com/maps/contrib/104893419316747279939/photos\">Eckert Estate Winery</a>"], "photo_reference": "CmRaAAAAjAu3dWQqtmRL6qLdV3PrO735AMioc1cT9pzLcbFLw0sHcme5HLLRoEq4bTGWTGXyxS1u9jIOlYMrlbgNNGUpGFnWPWBctj1_66E4U0b63jR_19FCX7TmMrFAias_VZUJEhC1vvNu5-6Wiw2yTjUWBQE4GhQGLYjaXahl4zvFqyFtOfQwbVWUYA", "width": 3264}], "place_id": "ChIJCzFDzXndj4AR_gUpWSKTng0", "rating": 4.4, "reference": "CmRbAAAAjC6G88WAn6xgewt_4B69jbsgAz7U7KU-TboFx8L0Elz-zLVnHRX6MMqkB4uHAZm2z16xbl_HSiRcRX26g2NsvxIZAUKG-JXh5EvjPd0P7HCEXEk5m5fpSFqueLTOhr3uEhBXLqzeE7-2w_0z48JlorSMGhTaBUf7Xt7uxfg3wRDcfxlmBKXs-Q", "types": ["food", "point_of_interest", "establishment"]}, "Shadow Puppet Brewing Company": {"formatted_address": "4771 Arroyo Vista Suite B, Livermore, CA 94551, USA", "geometry": {"location": {"lat": 37.69912, "lng": -121.738721}, "viewport": {"northeast": {"lat": 37.70072512989272, "lng": -121.7375346701073}, "southwest": {"lat": 37.69802547010728, "lng": -121.7402343298927}}}, "icon": "https://maps.gstatic.com/mapfiles/place_api/icons/generic_business-71.png", "id": "46bd90aad576beb77e721de7419dd149b5e4792a", "name": "Shadow Puppet Brewing Company", "opening_hours": {"open_now": true, "weekday_text": []}, "photos": [{"height": 853, "html_attributions": ["<a href=\"https://maps.google.com/maps/contrib/117750064420575830577/photos\">Shadow Puppet Brewing Company</a>"], "photo_reference": "CmRZAAAAG5dlI0l7dpuwMGyXwc1SIgBlddwLpFCFJGKpRK9LoPBnQLRc-ph96fpNY75jN-ywrfXfVFE0BL1HbhFhJuO0f5OdCpBNdUl1r1o1cJ2AM4CfEg7hdALSpt-7FobMIejUEhBDxcEG42Q9YZSmbRmFotjtGhSAUcoUYUsEO5B0xizTe5HNkvsYCQ", "width": 1280}], "place_id": "ChIJDRCO9zznj4ARXwvzkbaUFNo", "rating": 4.8, "reference": "CmRbAAAAdit0HPVpA4Q2ZeJOj8bxaDt2BMOpCRSIJnJKiYAUwrPFTbBxhYl-BCU8vtIJ6z5hph-0b_pJ0BYncfJ-lEMCSwnwT6p3RWy05D37kqfFfAyZa4LjK3lRIK1rMijCJuLdEhA-Qh28aRn4IzcnIqBcJI0jGhQpjweDPrL_OlxuLbwyny1NY1PFcA", "types": ["food", "point_of_interest", "establishment"]}, "El Sol Winery": {"formatted_address": "8626 Lupin Way, Livermore, CA 94550, USA", "geometry": {"location": {"lat": 37.6879021, "lng": -121.6875288}, "viewport": {"northeast": {"lat": 37.68882287989272, "lng": -121.6861846201073}, "southwest": {"lat": 37.68612322010728, "lng": -121.6888842798927}}}, "icon": "https://maps.gstatic.com/mapfiles/place_api/icons/generic_business-71.png", "id": "d5bed8297d1efebe26bf6a8c8bd1bc08541c089c", "name": "El Sol", "opening_hours": {"open_now": false, "weekday_text": []}, "photos": [{"height": 4032, "html_attributions": ["<a href=\"https://maps.google.com/maps/contrib/112525788468164941197/photos\">Dusty Jones</a>"], "photo_reference": "CmRaAAAAYOeecnZVi8AKO9RGUAG_UVqSC73UK0ckHxyeNIf0-PTW3WDAqEv_G7VUzIPLvUlmzbZssJqz9l3j8Os8d3DYmWaszJu8a3ODeg4sPGEsovL5Mrbl90icYE6CxMf_8s7PEhBKeopqHg-7Pg8fWSXMOAa7GhR0u_3eEQsGTNhQwETprCQuJb7LkA", "width": 3024}], "place_id": "ChIJaSDFhyfej4ARhwPPIPcjqGA", "rating": 4.3, "reference": "CmRbAAAAalQoPFlNKH2x_96Ckp7HZVSf5Yqs9z_0Z0r9v9c9NsdbcqkXp4ykHCx47J_1uZA-fTieCAxo_39chm_dWIzM1Gl7s2SGjfIlyaji1gyr9F8mscrOBnU11Yf9SKaZcs3vEhBr-uQ1RuqiRl0EFpK6ILveGhSxddvEUo8t0NWq2-fN_WUtjDtKhg", "types": ["food", "point_of_interest", "establishment"]}, "Rios-Lovell Estate Winery": {"formatted_address": "6500 Tesla Rd, Livermore, CA 94550, USA", "geometry": {"location": {"lat": 37.6660919, "lng": -121.7146697}, "viewport": {"northeast": {"lat": 37.66692482989272, "lng": -121.7133225701073}, "southwest": {"lat": 37.66422517010728, "lng": -121.7160222298927}}}, "icon": "https://maps.gstatic.com/mapfiles/place_api/icons/generic_business-71.png", "id": "132432d937bf82dab2f5744007e80821d5d2d1bd", "name": "Rios Reserve Estate", "opening_hours": {"open_now": true, "weekday_text": []}, "photos": [{"height": 401, "html_attributions": ["<a href=\"https://maps.google.com/maps/contrib/110946306872905984470/photos\">Rios Reserve Estate</a>"], "photo_reference": "CmRaAAAAv-aVnr7Rz5Vb7WLZywEU-2l9j_FYNrKUgS-cAVW94bU50YFXsA4g9idu2kklvDvv-T15IiZhuJcomlN628p7msjOSW1Re-NSc4zX3qo0Q1ZUMcHXaJeRlSxb_V4zK4GNEhD3pfpikaXbIlE-IZy0pDvvGhRe6ydfHyxXxTn3gQ2H-PM4E6-2DA", "width": 604}], "place_id": "ChIJH9xLsw7ej4ARGxxOzIHVY-s", "rating": 3.9, "reference": "CmRbAAAAN1TdP0Xx_Ap1-Sa6bQua7yxLb_AoD7yHV9PFBA1uB3aTEgGVupTKrkzYIvtZ2eVw7JkHf1wOg1Ll_07MzutrBSiTUWDl6hGKOJQUx56LSPr1yrbjnRZk3MhXZ6l-nu0lEhD0InEooaRtFWpkp44PRMBMGhQi4J-43J7boAgishF90lXYSBanxA", "types": ["food", "point_of_interest", "establishment"]}, "Crooked Vine & Stony Ridge Winery": {"formatted_address": "4948 Tesla Rd, Livermore, CA 94550, USA", "geometry": {"location": {"lat": 37.6664332, "lng": -121.7336467}, "viewport": {"northeast": {"lat": 37.66714617989273, "lng": -121.7322806701072}, "southwest": {"lat": 37.66444652010728, "lng": -121.7349803298927}}}, "icon": "https://maps.gstatic.com/mapfiles/place_api/icons/generic_business-71.png", "id": "68f6a6d13eb47f5df8a5769dceb9a227b7c28fa2", "name": "Crooked Vine", "opening_hours": {"open_now": false, "weekday_text": []}, "photos": [{"height": 3216, "html_attributions": ["<a href=\"https://maps.google.com/maps/contrib/107685393595210843787/photos\">Mel Beeler</a>"], "photo_reference": "CmRaAAAAbYxo8RlZaojvVQyh3RMnz-qVWRR_I3wLyW-Vgxpuv2MCFxpNRZ-4iGoV9wJmrLUnrltvGjn1iYbIb2o_lQ37TCJ-jflqwMzwswSXbhVJbUnJh4AUQNLNqlcmCzyCaaY1EhB7hCZ-vzNZqNXO8WBScixiGhTF14paphU1NJCcpaGepRNWdQKbMw", "width": 5808}], "place_id": "ChIJw7QVTfDdj4ARraQapZstq3o", "rating": 3.8, "reference": "CmRbAAAAVkgtzWIsngRNuJsOfHWLvH_kgpVuNkmkGBoUup3tUR8QuzITEA4K0mgW0adY5TcYxJxP-tkpUHTnQX1yPbrBIyNaw41JdzkW-anfwhzYib2UTMhHuhwftBWmNWB7BjExEhDQiwhbk31MjeO9Cpx9zuRWGhQE29mGFP4cqVcaV_Pe_6nb8imLmA", "types": ["bar", "food", "point_of_interest", "establishment"]}, "Cedar Mountain Winery & Port Works": {"formatted_address": "10843 Reuss Rd, Livermore, CA 94550, USA", "geometry": {"location": {"lat": 37.6613027, "lng": -121.6588103}, "viewport": {"northeast": {"lat": 37.66272342989272, "lng": -121.6574527201073}, "southwest": {"lat": 37.66002377010728, "lng": -121.6601523798928}}}, "icon": "https://maps.gstatic.com/mapfiles/place_api/icons/generic_business-71.png", "id": "96123d5249b3bce1b9502a69ec21acfba6275d19", "name": "Cedar Mountain Winery", "opening_hours": {"open_now": false, "weekday_text": []}, "photos": [{"height": 1944, "html_attributions": ["<a href=\"https://maps.google.com/maps/contrib/112236402627829921797/photos\">Annie Bluitt</a>"], "photo_reference": "CmRaAAAAbUxkQp67tKm8iuAcSR5nAhaaEiZbkpkqhzfzxsF0pzUotzCJZReoNROIswI3v_iT-Dz5jyfMzn69eVR53Uzfrt-cNM5fTps5oJwkPm8gJqB0mSBU9Zo9TWDryyMlxOs7EhCWQR4Yx5zzeI0bmIaVelnCGhRnSSy-16bpy_ICuBf1I1FQRm94nw", "width": 2592}], "place_id": "ChIJxxwYgw3ej4ARrYjYRyYxgow", "rating": 4.7, "reference": "CmRbAAAA13qC0azyB_IccCam9Dk3UMbgfy8Om_Fg_ZgNmvKPB0rhsLmxe5zFYCAY44_1CmY0s6zbpNgB3Z-MpNo8UhCbBijkiXnPw7oWJ_j3nddaoIo-2oY2BWHBsdO9S-5zmXgJEhAXZTBFTKLXKauuAapE5R_2GhQv2qLS0MwRjLIY9LCtAPDSUUSjAA", "types": ["food", "point_of_interest", "establishment"]}, "Wood Family Vineyards": {"formatted_address": "2407 Research Dr, Livermore, CA 94550, USA", "geometry": {"location": {"lat": 37.6753907, "lng": -121.7200332}, "viewport": {"northeast": {"lat": 37.67688972989273, "lng": -121.7186842701073}, "southwest": {"lat": 37.67419007010728, "lng": -121.7213839298928}}}, "icon": "https://maps.gstatic.com/mapfiles/place_api/icons/generic_business-71.png", "id": "cf811bf0fc88ae6ee02fbd3713d1645a39d20397", "name": "Wood Family Vineyards", "opening_hours": {"open_now": true, "weekday_text": []}, "photos": [{"height": 4000, "html_attributions": ["<a href=\"https://maps.google.com/maps/contrib/102529613534533534459/photos\">A Google User</a>"], "photo_reference": "CmRaAAAAOKVqgQQxdni5eYZ35JlCA0cEKWctnalSva_id6dKQOm2XiWG8CKZ3eefZECZfnnkWYno3F9kHogP09nIldUw_dRpeGBfYFXrXln2pgbO5Pqj1VT-5YmJv_7-wk-RnVRjEhCN_FuoBLVHb7kR_Wrn4BsTGhRNal23p7Rs-DGhJXzX-dVjonQbXw", "width": 6000}], "place_id": "ChIJqTUhyWfej4ARb_BbIDCXVuE", "rating": 5, "reference": "CmRbAAAAOv98uhFgVoTkK9VlMgjfxLkt3CrGNhxDIsqTS83L0AxS0hW9U092uQOszQNsQ7c2TjfRw0JVd1ioUa0In7k158-c8P9rvHBdcXFhQO5BLAtNEJkcE-Q91pZXZa9qKU9HEhBWIgMzpAIej39WT5eg-7WcGhSafD6JCk49zfQkimwunJtGkE1D-w", "types": ["food", "point_of_interest", "establishment"]}, "Los Vaqueros Reservoir": {"formatted_address": "California 94551, USA", "geometry": {"location": {"lat": 37.8202477, "lng": -121.7337949}, "viewport": {"northeast": {"lat": 37.8379306, "lng": -121.7177402}, "southwest": {"lat": 37.8006862, "lng": -121.7597447}}}, "icon": "https://maps.gstatic.com/mapfiles/place_api/icons/geocode-71.png", "id": "ab007f3592ad08bf06751ccc6dcd57dca87b275e", "name": "Los Vaqueros Reservoir", "photos": [{"height": 3000, "html_attributions": ["<a href=\"https://maps.google.com/maps/contrib/117391697677970449618/photos\">A Google User</a>"], "photo_reference": "CmRaAAAAtGPzghAFxRSODWr8Fcgae7RcJ_F9d8Su9qnIj7a8HkVbLBdIJuYMy31skmNMIJ7RkfF8ZlBe1NWGWbZ1kvIW_TRFJ99ObJBoCyX1ZZzMi4vorJECyEXaqC4O3ZcMHOR8EhA1LHCK8i9-8MwKYNxqjEnHGhSx_VKM8xsbgt2lXuNyg7ufcxe_3w", "width": 4496}], "place_id": "ChIJD0pP5bbkj4ARRf-M0CFOq4A", "rating": 4.4, "reference": "CmRbAAAAgrzBzDYuVqxdOTlV3U-2tpPqvFplmJZYuxz6Nzqk2W8GiMbl4fTkPSvpIOC2DbaWwh2sAkSGF_sZzeAmSozPEHzmJazqqQXBB_GOH1CSTqI2XuYar6roCjjxIMbvVeLGEhAi7wpL8nIlMLmu1jmPi1Q1GhTrGXYGjil1bpGAF1hz7At3GoXCMQ", "types": ["natural_feature", "establishment"]}, "Longevity Winery": {"formatted_address": "2271 South Vasco Road b, Livermore, CA 94550, United States", "geometry": {"location": {"lat": 37.6759437, "lng": -121.7192298}, "viewport": {"northeast": {"lat": 37.67729352989272, "lng": -121.7178799701073}, "southwest": {"lat": 37.67459387010727, "lng": -121.7205796298927}}}, "icon": "https://maps.gstatic.com/mapfiles/place_api/icons/generic_business-71.png", "id": "31081817da1e19de055474f0d0b322d11c267e40", "name": "Longevity Wines Inc", "opening_hours": {"open_now": false, "weekday_text": []}, "photos": [{"height": 2576, "html_attributions": ["<a href=\"https://maps.google.com/maps/contrib/116003399384943884334/photos\">Angie Caro</a>"], "photo_reference": "CmRaAAAAaqGUbUfqK1_WH0VX60T3QIX-dRPsw3YQBgbX4ZKDyrGPwXbMZlWQPUNQNG3YPxQ1qvtXggYpdnV8XmyzFef49Om3ESg2H4FNaF75j1O9LUTM7h_6ycO3EFAn7eomCYKnEhAOtS5tDhrBJQMZVKpvA0_XGhR5D3YIZI9LWG08zJVfhWRO1yO2xA", "width": 1932}], "place_id": "ChIJz4nJWtPnj4ARevv4A0nCxuQ", "rating": 4.1, "reference": "CmRbAAAAMMHvJNEObvN3cgYKlA1HkSdwrBtcme7NHnuZfn_WqkjdhjQml3oet-I_KSHmC-D_GjgYHxdUMw2hHvg0Y6BBihhkwUpdKekugJ3LmUhmHmRs7nYM2CdENMYVvme68M70EhB2IwM-lh21ydZFJ84eKA4MGhTcWdrt2Lf8RvJdBghnZRgikmyn8Q", "types": ["liquor_store", "store", "food", "point_of_interest", "establishment"]}, "Ohlone Wilderness Trail": {"formatted_address": "Sunol, CA 94586, USA", "geometry": {"location": {"lat": 37.5148673, "lng": -121.7845376}, "viewport": {"northeast": {"lat": 37.51621712989272, "lng": -121.7831877701073}, "southwest": {"lat": 37.51351747010727, "lng": -121.7858874298927}}}, "icon": "https://maps.gstatic.com/mapfiles/place_api/icons/geocode-71.png", "id": "07fa05de983665405ef91159c2ee44bb67142456", "name": "Ohlone Wilderness Trail", "place_id": "ChIJRbON1pnaj4ARK9OYmQfn5XA", "reference": "CmRbAAAAg65ZIhQSnvkgfwMafVKLDnwfhsGn2zLIq0occQqPa6pNXoVPFSwlwdUSziZcSVt8QUeWMzRg0gQ3ilgsk0Br3Dx8haPONdYnBSe2d1lSfns5wH13LVf_3fle4m8Gj8IDEhCO6V4lSF1mrUKvUcJ8wVQbGhSa6Qp4iIZpYDZKG1hxHUsgRHvxpQ", "types": ["route"]}, "Eight Bridges Brewing": {"formatted_address": "332 Earhart Way, Livermore, CA 94551, USA", "geometry": {"location": {"lat": 37.6985394, "lng": -121.8125322}, "viewport": {"northeast": {"lat": 37.70012052989272, "lng": -121.8111805201073}, "southwest": {"lat": 37.69742087010727, "lng": -121.8138801798927}}}, "icon": "https://maps.gstatic.com/mapfiles/place_api/icons/generic_business-71.png", "id": "ec4af82a9704a46dd5d2838272916649c8dbd7f8", "name": "Eight Bridges Brewing Inc.", "opening_hours": {"open_now": true, "weekday_text": []}, "photos": [{"height": 3024, "html_attributions": ["<a href=\"https://maps.google.com/maps/contrib/110969966087692815090/photos\">eric hazel</a>"], "photo_reference": "CmRaAAAAL98DVP1PBDiEHAJYrRYmLZB2c2GTUrld7ANyXPXJBrsF3xaYdLbpYAKz7QKIrn-8jVP8HxI7g6OTtfVq_m0gMFTvt1BaUjO3TNrk8LVHcH97zn-hCmhXKCC5JU0oLEN-EhBvPzaVN3ySpMpuY-5rVH5YGhTSbEztcmEW-N1OTj-XTXw92vL-9w", "width": 4032}], "place_id": "ChIJJbzEMJ3oj4ARtWgo01Eh1ZY", "rating": 4.4, "reference": "CmRbAAAAvGFsfq5AxV72-ghrt3dmc9BqMTTMZj_v3P1DvMbvolg4GWljSAua36H4Pr4q5j_XzKAqcxTGilXKoW1arM4c6FKYmoKFUO6EMawCAoDgKQ22pnx3w06-E27CnlktWgRjEhB_zOhpxXnfXKQbEH4DTgInGhQeV5cIuJzQyv2y_N7J8te3yNm2Ow", "types": ["food", "point_of_interest", "establishment"]}, "Robert Livermore Aquatic Center": {"formatted_address": "4444 East Ave, Livermore, CA 94550, USA", "geometry": {"location": {"lat": 37.6815843, "lng": -121.7414866}, "viewport": {"northeast": {"lat": 37.6824269, "lng": -121.7401494701073}, "southwest": {"lat": 37.67905650000002, "lng": -121.7428491298927}}}, "icon": "https://maps.gstatic.com/mapfiles/place_api/icons/generic_business-71.png", "id": "f93bbb55c012cc2f7debf5cda1525ac40cfb6ac9", "name": "Robert Livermore Community Center Pools", "opening_hours": {"open_now": true, "weekday_text": []}, "photos": [{"height": 1836, "html_attributions": ["<a href=\"https://maps.google.com/maps/contrib/118338470365245228014/photos\">Batmars V</a>"], "photo_reference": "CmRaAAAANrVeNBxEPdlcVHAJXd0PNU6f4toDmjdgv2iBHlvRWxf47600Ux8nOmcePFrWbMTlkMvt61Ew4vqc7EiVErEwa-zrQg-zvtQmX0ynphmgxSBpoCKVN8Eubm1O122OIYF6EhBcVhzHx-tumalsY9s687XJGhTxt_7FnIoXt7BBnkpwtAELHte-fQ", "width": 3264}], "place_id": "ChIJBwIltkLnj4ARcrFuILSpCJ4", "rating": 4.6, "reference": "CmRbAAAAKhf_sMMLPGpCcLfCY8q8kyROHDzQiTfzeSoK_hMWZB0dHS_wzEjTjJ3B0OXaPFpd2GjKQoIVC2Y6E7L8oHNYmcrRY211TZYc4O4XBpMIlKR3FlNGu7SjJnmETNkind50EhB6aUnP9ctrP9xNrw_03Q-WGhQjsLpdiPib-oyjFJO6NhZKlWDB-A", "types": ["point_of_interest", "establishment"]}, "BoaVentura de Caires Winery": {"formatted_address": "9309 Tesla Rd, Livermore, CA 94550, USA", "geometry": {"location": {"lat": 37.6622242, "lng": -121.6751873}, "viewport": {"northeast": {"lat": 37.66357402989272, "lng": -121.6738374701072}, "southwest": {"lat": 37.66087437010728, "lng": -121.6765371298927}}}, "icon": "https://maps.gstatic.com/mapfiles/place_api/icons/generic_business-71.png", "id": "a6ddec32f4ce8bbba753ec8f8583cc7785d89ddf", "name": "Boa Ventura De Caires Winery", "photos": [{"height": 480, "html_attributions": ["<a href=\"https://maps.google.com/maps/contrib/101105765702666650604/photos\">Oksana Florescu</a>"], "photo_reference": "CmRaAAAAq3w3aSnUi7yU09_vrWdYXVRM79IeztAu1HeQHZ7-Igf1EINxs_qMa49yefOTT4CdMqBI8KmVyicge6LmJTjAnQB5ROo6yZe6bt-1PruG6DgMfuyYtjWC8kqHt-Ev94OaEhDWYm-MBZ_QmQoC5Era8QPuGhRMoywfSOCqOH4JYuBORGUMh31vwA", "width": 360}], "place_id": "ChIJj81Qek3ej4AREIas07y--ic", "rating": 4.4, "reference": "CmRbAAAAcs_xtR7SALu-Efkwq8sFMunF7LvY6GKU_yIKojqZnrBng1JY2MZwAiOpzWYlyqcyByprJlaFvpwHXS_l7AMmb4VEaWfULUE1xe_1oE2sp3cJu9N7hO9-Yedb-cJvDn39EhDTTcYlYO2qOGPUERQrF_XtGhTn05bZmT01DGtVW8idp7Tr3lrnbA", "types": ["food", "point_of_interest", "establishment"]}, "Ohlone Regional Wilderness": {"formatted_address": "Sunol, CA 94586, USA", "geometry": {"location": {"lat": 37.5269971, "lng": -121.7070852}, "viewport": {"northeast": {"lat": 37.61658745, "lng": -121.6251191}, "southwest": {"lat": 37.46291444999999, "lng": -121.8583935}}}, "icon": "https://maps.gstatic.com/mapfiles/place_api/icons/generic_recreational-71.png", "id": "aeafd4cf049461c7b630de3ed7f06134b28f48a7", "name": "Ohlone Regional Wilderness", "photos": [{"height": 3024, "html_attributions": ["<a href=\"https://maps.google.com/maps/contrib/101180975201949316297/photos\">Mickey Sun</a>"], "photo_reference": "CmRaAAAA_HisY1EntgWqt5lwMdG7jq6bTe_4iLGrXTRShz0joblhxcxkaJrk3fHSv7zD60CPqcopkRkDkSOIbRP6abXFKijyos33UGZPa9495uR4cVMgJ158PaOe6B5VxDoxyYqEEhDUD1M45FW_AhSoM72OfNbPGhQgnC9rUxbvjuSqSjmmaKeFUj_Clg", "width": 4032}], "place_id": "ChIJk2goUGvaj4ARmimYDVE5I2M", "rating": 4.5, "reference": "CmRbAAAA2y5cfQv17vF77mvs4s4oerxacFafPeO2uvVRJorKNzMhY6cjgMiZ-NFg876BR3g1Q2tQFnsmVQUElFul1mLC7soDE6PNR7PBu44-5I8mxOdsNRLH6B--U1f_AepIq3vGEhCY-dOfgJV1JjmdIFsj4RUCGhSISlQM2IjWEiNvNYav0ntVwTLcJQ", "types": ["park", "point_of_interest", "establishment"]}, "Big White House": {"formatted_address": "6800 Greenville Rd, Livermore, CA 94550, USA", "geometry": {"location": {"lat": 37.6470747, "lng": -121.695649}, "viewport": {"northeast": {"lat": 37.64847002989272, "lng": -121.6947840701073}, "southwest": {"lat": 37.64577037010728, "lng": -121.6974837298927}}}, "icon": "https://maps.gstatic.com/mapfiles/place_api/icons/generic_business-71.png", "id": "5944bdcc41d9c3c0a67f45177aa4790a278e5380", "name": "Big White House Winery and John Evan Cellars", "opening_hours": {"open_now": false, "weekday_text": []}, "photos": [{"height": 681, "html_attributions": ["<a href=\"https://maps.google.com/maps/contrib/116651861910099154940/photos\">Big White House Winery and John Evan Cellars</a>"], "photo_reference": "CmRaAAAAMaMpErIejZRpebdGhuuE5MJhzJjzLLAb7_oiV5hFbW3RTqyuM1jH9L77TYvDgtA4w1igvaMypBaIuezQ2JXWsp2q6C6SjUXnLX1j2l6Ojcx1-9ycBsyqR252NbHlcepzEhD8uZCJjhdV5ZRrK-QYR-Z6GhQT7RtNKw-0OEXncfUVhAEgA1tmRw", "width": 908}], "place_id": "ChIJGTksX_Xej4ARQABvzmn2O_U", "rating": 4.6, "reference": "CmRbAAAAOra4p2LvWz8hJT8SfKK1zMEdZ2GPwjaPBs_5YVGtQ-EXJ-EN33tN8WD_f8cvuFV_aCGadeqdaauX-gAijvolDN-HfCzejplletiLKzsPs1kT7_Z45CWGBxBhV0lRzaCWEhD-pC72hEdpYkCdpH1XHm8cGhQ_4V00bTJiybh8iSbabO1duNyKBA", "types": ["food", "point_of_interest", "establishment"]}, "Tenuta Vineyards": {"formatted_address": "633 Kalthoff Common, Livermore, CA 94550, USA", "geometry": {"location": {"lat": 37.6295382, "lng": -121.7901835}, "viewport": {"northeast": {"lat": 37.63138252989272, "lng": -121.7893307701073}, "southwest": {"lat": 37.62868287010728, "lng": -121.7920304298927}}}, "icon": "https://maps.gstatic.com/mapfiles/place_api/icons/generic_business-71.png", "id": "7cc38b9e2f10ddab26ff9ee0647c562d36c684e6", "name": "Tenuta Vineyards", "opening_hours": {"open_now": false, "weekday_text": []}, "photos": [{"height": 4000, "html_attributions": ["<a href=\"https://maps.google.com/maps/contrib/112945503212118429384/photos\">Nam Nguyen</a>"], "photo_reference": "CmRaAAAA0cblSk5uDAnfcuJoupPysE-Zw3w1h_habIvLt3a7qSC1gStO5z3j3nBQ2X9S2ooPmucVHaDH-4v9E8JKzbAq_u8fsJ0INF1fnffHzK7gHy7-pBJ34U8-DkQRm2aOVsjZEhBWbsCeg-Kektp4kq1_Ec5dGhQ-lHaRSAh_ZUYW1XG0Nax1tbV83w", "width": 6000}], "place_id": "ChIJY6YRIz3dj4ARdPtPNb10W9U", "rating": 4.8, "reference": "CmRbAAAA8ad7tkIj89joCUhV1ovZUygsSKuvpjzyp7h4JKQiIcY0_KugB_weYjfVPKnXAWVRi6LZnfT3VT61EES86fWiwT8gHOkEOTWIqmtkuR82ed899nkt7eq3tdc8nV2t-_L1EhAqt9T2n1lGixspkxtzpa9nGhSkIVUZ26YdfhiBfhN4KsYmnQH5Qg", "types": ["food", "point_of_interest", "establishment"]}, "Holdener Park": {"formatted_address": "Livermore, CA 94550, USA", "geometry": {"location": {"lat": 37.6474443, "lng": -121.7530281}, "viewport": {"northeast": {"lat": 37.64920327989272, "lng": -121.7520389701073}, "southwest": {"lat": 37.64650362010727, "lng": -121.7547386298927}}}, "icon": "https://maps.gstatic.com/mapfiles/place_api/icons/generic_recreational-71.png", "id": "7bc708d1f4f376493504531348625284c932ca3b", "name": "Holdener Park", "photos": [{"height": 3264, "html_attributions": ["<a href=\"https://maps.google.com/maps/contrib/113664933069465475165/photos\">Prince Kattuveettil</a>"], "photo_reference": "CmRaAAAAf_M3HQuzemLVLAoiscJhuXwrSin0B0xSmGMU_YdvyLeQrbBpGXYZdZKlkGK59UEQ3BZg6echEPh_vfWCsXxSj4Yvdhl35JVQN1T6PtRppwU5nCdqkeBLS2GqljHq-pi0EhA3lmmYGR09tqCIotnjiVpoGhRjXa1v0BsZodSVYHzpPjbT4FynYQ", "width": 2448}], "place_id": "ChIJfW2bMb3dj4AR1TUCFnJ1ybc", "rating": 4.3, "reference": "CmRbAAAABOjnWrvzsPvuuGRRRWbPo60HauZy3_2w5qXq2iVZTRIWhXekaklu3eWjYj_WwPSBzBSJ7JDhnbvO7khJcnhYszn7Y279YrA8SDPW3EaKmdEisLVgh5U6OSX-ssZDMluAEhDYvRSt0YzTSpSd8tx_aZZBGhQ3HXGEF3VSCdkkfXg0IkG73L7VTA", "types": ["park", "point_of_interest", "establishment"]}, "Fresno Chaffee Zoo": {"formatted_address": "894 W Belmont Ave, Fresno, CA 93728, USA", "geometry": {"location": {"lat": 36.7522416, "lng": -119.8230793}, "viewport": {"northeast": {"lat": 36.75359142989272, "lng": -119.8217294701072}, "southwest": {"lat": 36.75089177010727, "lng": -119.8244291298927}}}, "icon": "https://maps.gstatic.com/mapfiles/place_api/icons/generic_business-71.png", "id": "fc39b08adc407a903c9af796cfff27f440c5a39f", "name": "Fresno Chaffee Zoo", "opening_hours": {"open_now": false, "weekday_text": []}, "photos": [{"height": 1365, "html_attributions": ["<a href=\"https://maps.google.com/maps/contrib/117223591591173350652/photos\">Fresno Chaffee Zoo</a>"], "photo_reference": "CmRaAAAANJ_58fL6DabTguUII71lFFrh6N78_aBVTEI8yLM9MGoQlnEGOE_eAkcBO6gVcdqCVKcCxZtBocM_sfP09WIYE4f_4mQgybEFPl0VsJmp0JBvM4N7oZ865NSF40aQd1J5EhBW-c5uAlNjTXgaYZhOidX2GhRXvJAy4ob3m_HKw_IXp3nemuHJ8A", "width": 2048}], "place_id": "ChIJS29UlTFnlIAR1oHSqxi5gO4", "rating": 4.7, "reference": "CmRbAAAAA8-DxmsQnTB6pn6B3GVtMupgp336c723crZ5jZArbyJJJs4r4q4T1fD5W0PjJZwfuXI7MS8bFWhgtnxzUdk7eBwdtw-Gv9mcyEH-IQFc8oLSV_uEyq2mX4PAOaDfnZ9oEhCN_HcTqgGcMKWaVwh4O7QLGhSEkywE1ycK_p97tIlWvObEjDgRiQ", "types": ["zoo", "point_of_interest", "establishment"]}, "Forestiere Underground Gardens": {"formatted_address": "5021 W Shaw Ave, Fresno, CA 93722, USA", "geometry": {"location": {"lat": 36.807573, "lng": -119.88181}, "viewport": {"northeast": {"lat": 36.80920032989272, "lng": -119.8804696701073}, "southwest": {"lat": 36.80650067010727, "lng": -119.8831693298927}}}, "icon": "https://maps.gstatic.com/mapfiles/place_api/icons/generic_business-71.png", "id": "ec0dccff217ac19f14da2ebd7782d7e9e8aff49e", "name": "Forestiere Underground Gardens", "photos": [{"height": 2432, "html_attributions": ["<a href=\"https://maps.google.com/maps/contrib/114648644881186925810/photos\">Brian Nicholls</a>"], "photo_reference": "CmRaAAAAaYgaz-8EAKSMdx_8n6Yi8-xfWGKeIqGlhNf9zQ_pZCwZsvqtQQmzr5woaYwmelkezigBviXF95pZl5zoVbQHwPcvsh6xuIAGojL0u-jBQHrXO_OKe75LyalQBuBFsMn4EhDsStuQwnlZB9X4wNFeRn8gGhSA8cNU5C1n9PtIuRiGRMzLJQdq1A", "width": 4320}], "place_id": "ChIJeRJX4f9llIARyC9zuWNb6cw", "rating": 4.6, "reference": "CmRbAAAAeJxdaZOxZ7ZxmGIVCS_a1xxFUAo8EccnijKw470NKCbi9bu7BWegexPnIyhpRg99R7FRW13c_d6u1M42aqHjuybZQ5Mjn0khXOfId21D3MJvIKJwp5gVU_kDT6da43L_EhC6e0HSE3l34QT_HCS3A1wbGhQCdluImogeYtdV1padZCjJvMay3Q", "types": ["point_of_interest", "establishment"]}, "Woodward Regional Park": null, "Shinzen Japanese Garden": {"formatted_address": "114 W Audubon Dr, Fresno, CA 93720, USA", "geometry": {"location": {"lat": 36.8658706, "lng": -119.7815989}, "viewport": {"northeast": {"lat": 36.86722042989272, "lng": -119.7802490701073}, "southwest": {"lat": 36.86452077010728, "lng": -119.7829487298928}}}, "icon": "https://maps.gstatic.com/mapfiles/place_api/icons/generic_recreational-71.png", "id": "d89808dbd637ffe74ae313133dbda9fddee0a225", "name": "Shinzen Friendship Garden Inc.", "opening_hours": {"open_now": false, "weekday_text": []}, "photos": [{"height": 3036, "html_attributions": ["<a href=\"https://maps.google.com/maps/contrib/112521487245531763954/photos\">Alex M</a>"], "photo_reference": "CmRaAAAAs_QZbRx_ZU16NEi2ALFz-xqioQ9llXPxAhinQoqV7CW8EHK5wYuS-LXShzRojdKI5iewes3aCdxfAiqjBiv37HEaZYgE9lxg1HUz97AYSHwJiTg4MVjUiQ0-0eYRAJuPEhD0MgRYtM7kBtJQBI73FXDQGhSELHqQ9XzdFjp29C3ZuFa7PnACTA", "width": 4048}], "place_id": "ChIJNdePM5tClIAR0c4-qFljjqI", "rating": 4.6, "reference": "CmRbAAAAcwhwExK21hMt5k5MZo4JHW4oFTCWpRFN9VGtqeG_HE0VCBmwE-M_afJmDxVMumN9ulxVJafPsapuwT8cZWOBfBNgD5TIErP8hwKl2dByy7v9Jq7tAufmV6rByE7YQSZmEhBqGvsYAIN_1ax2sOC4_QVzGhTPJZrjtmpMgUDCM2sMlpkWjFucOg", "types": ["park", "point_of_interest", "establishment"]}, "Island Waterpark": {"formatted_address": "6099 W Barstow Ave, Fresno, CA 93723, USA", "geometry": {"location": {"lat": 36.813314, "lng": -119.897826}, "viewport": {"northeast": {"lat": 36.81466382989272, "lng": -119.8964761701073}, "southwest": {"lat": 36.81196417010728, "lng": -119.8991758298927}}}, "icon": "https://maps.gstatic.com/mapfiles/place_api/icons/generic_business-71.png", "id": "3b4f0c18daf93a63ac2f4fa5ed883708c45b23d6", "name": "Island Waterpark", "photos": [{"height": 706, "html_attributions": ["<a href=\"https://maps.google.com/maps/contrib/106397809327822946792/photos\">Island Waterpark</a>"], "photo_reference": "CmRaAAAAy2elFOmGBGLweuTJovQ5VksfigXBisNjki372N7PRWsGFhvXxP_JNlfVcDGKp5Xy7Pf89PLY-BT9GgdwEU8upoBCGpxVuP1BKiSbZPvvIRKVN06yxljPwM5A9X8trg_7EhCnUzhL0CSgPDcJMojp1gk7GhQomMcil3NThj_LrnxvfO8pfmejNA", "width": 1256}], "place_id": "ChIJDTApsFxvlIAR3RF9pnRXK0E", "rating": 4.3, "reference": "CmRbAAAAJ7xSNb1iq7ekcFbxVqV6xpzFH3f7Et8E86b_FF2RlvngvxhD69HX-DjD9QLDPLim7ozLTfpYkFfXwidcCS2AD_n-Hc76vZ1EL4zrmAnpRjBmDovVhqg_NhPCot8E1w_lEhDQydJgDTqEgVN6JjxA47pZGhTxNbCzOYbUZRZopQtbpYcjE658LQ", "types": ["amusement_park", "point_of_interest", "establishment"]}, "Meux Home Museum": {"formatted_address": "1007 R St, Fresno, CA 93721, USA", "geometry": {"location": {"lat": 36.739746, "lng": -119.7823905}, "viewport": {"northeast": {"lat": 36.74117327989272, "lng": -119.7809330701073}, "southwest": {"lat": 36.73847362010728, "lng": -119.7836327298927}}}, "icon": "https://maps.gstatic.com/mapfiles/place_api/icons/museum-71.png", "id": "3acc66012fc4295e3e6d8f803c1d039d3a4f278b", "name": "Meux Home Museum", "opening_hours": {"open_now": false, "weekday_text": []}, "photos": [{"height": 842, "html_attributions": ["<a href=\"https://maps.google.com/maps/contrib/102447448324897821777/photos\">Keptwell 4u</a>"], "photo_reference": "CmRaAAAA3S0F3EIygiEzLfA_2OhDXkGF6b28gGicF-nXFxvbgnY7sPhD9W91q5tT3_-ax1Rh5bAjYR7Mfsy0nxEgyWdRydQ9gJUK-O0fbQUlraVqJYkhaYssAPugMd3zdb7J8uzcEhAowp2WRbjdCdfRHGsIfWrxGhRLOL82TdiIYmrosFsd-KzAKlq6HA", "width": 1077}], "place_id": "ChIJCYBxxBhelIARZWnJkJp4OL8", "rating": 4.2, "reference": "CmRbAAAAsqZUsBnRSpkfIqWedaBCXZQiGoeTyiEasyeggBNg-6V_Or9CoVT5BNN0eeoL1GUg06f5teWoKOPgguYT9ZaawgIw5eMhlWHuvbOkXEn2sPiXtHa7-JtSKvNtMNKx83JoEhDeNoKCnmIuNJ4cmLmf-dEGGhT1_jx-sFRDyYtpot5tCfaXwkHWPA", "types": ["museum", "point_of_interest", "establishment"]}, "Fresno Art Museum": {"formatted_address": "2233 N First St, Fresno, CA 93703, USA", "geometry": {"location": {"lat": 36.7708142, "lng": -119.7739601}, "viewport": {"northeast": {"lat": 36.77216702989273, "lng": -119.7719432201073}, "southwest": {"lat": 36.76946737010728, "lng": -119.7746428798927}}}, "icon": "https://maps.gstatic.com/mapfiles/place_api/icons/museum-71.png", "id": "aaceeaf25a5b5a98d119256c1763f57934f1001e", "name": "Fresno Art Museum", "opening_hours": {"open_now": false, "weekday_text": []}, "photos": [{"height": 2988, "html_attributions": ["<a href=\"https://maps.google.com/maps/contrib/115069368779380072670/photos\">Silvia Montoya-Gomez</a>"], "photo_reference": "CmRaAAAAaBls1h_HmRq7axpHZSsMygWndaPsCBl2QmrX5GIqJlDzRfs2cVWAHaI0q7JxSx-3ThilNKCN9CvONQp9r4ikgxcY_Vwk1NQKb9XNcNp0WOkLvzC1YJTxyvZ0dNZQChTKEhANsaI2z27KiZjHB_ZfnKnZGhROqFmmT7CHu9imaTCAXpS62W9MsQ", "width": 3984}], "place_id": "ChIJc6JnXO9dlIAR-hxEzzqf4tQ", "rating": 4.5, "reference": "CmRbAAAAUf3Sk7L2U66F7IlaH_zTx6y2S7lZqJ02nn1UW_vvyt4EL9LGp50nVZ_kkj039JZn0_6-pNrVxb6i5eMk3Exn4gZq6ENkqnhHUnvLWWo6tvjH9H_iFb0kNd2evm0Q8ZX1EhA_MJ4yUs2-ikwvCYe-i4PYGhSfLG7miZKgc6whfx_C_8bWA3TumQ", "types": ["museum", "point_of_interest", "establishment"]}, "Old Town Clovis": {"formatted_address": "Clovis, CA 93612, USA", "geometry": {"location": {"lat": 36.8247866, "lng": -119.7013365}, "viewport": {"northeast": {"lat": 36.8279053, "lng": -119.6999395}, "southwest": {"lat": 36.8220481, "lng": -119.7034265}}}, "icon": "https://maps.gstatic.com/mapfiles/place_api/icons/geocode-71.png", "id": "76f555dbeb3cbc951ac2bcf0ddd88d0f8c27ce19", "name": "Old Town Clovis", "photos": [{"height": 2988, "html_attributions": ["<a href=\"https://maps.google.com/maps/contrib/104458971761729621639/photos\">M Ochoa</a>"], "photo_reference": "CmRaAAAA7nr5-nzQmgICxdVeRNpIumjTcXD8Ph_BQwem372hOIQ6pIB_EdcAt9cQxkbZJvaZ7DiRSwiONzOr9YvHsxLRGuG-GPMfLXe5jzp-ohpsm-hiGhC-u--5cQPtZ9gr-fOPEhBFke0wrD0hxvcdhyU-JmgVGhTHBBUiKHIyXFgysg8xs8L-g0NXxQ", "width": 5312}], "place_id": "ChIJiZxx84NclIARqZBxJ4p0ajo", "reference": "CmRbAAAAh1ECmThM0v6SZu81VoJ4RjL1oWO_KEFfLOFnqtNmWFawYFGXL3157WSASZ2DOQhxZHLsmPZsdWWWYouSbpf1rGUn7zio7k0f3K8kyl3b0QUpwq0d6nMpYKzT6rrnPY_pEhBUwmHQK-WdWcHeCxFXBGrhGhQNnPvn3cbLjDVgS4lSmEiZeJWP6A", "types": ["neighborhood", "political"]}, "Discovery Center": null, "Kearney Mansion Museum": {"formatted_address": "7160 W Kearney Blvd, Fresno, CA 93706, USA", "geometry": {"location": {"lat": 36.7237575, "lng": -119.919426}, "viewport": {"northeast": {"lat": 36.72510732989272, "lng": -119.9180761701073}, "southwest": {"lat": 36.72240767010727, "lng": -119.9207758298927}}}, "icon": "https://maps.gstatic.com/mapfiles/place_api/icons/museum-71.png", "id": "0b5a1f6a1770b7352ff55925254ca8085398366f", "name": "Kearney Mansion Museum", "opening_hours": {"open_now": false, "weekday_text": []}, "photos": [{"height": 458, "html_attributions": ["<a href=\"https://maps.google.com/maps/contrib/110211166828828247366/photos\">Kearney Mansion Museum .</a>"], "photo_reference": "CmRaAAAA6M50ofuV41XjTf4WoJdGky4HIdhMluTkcY6_BK5QvLqohiGFWxycQYGN2mLlKfh3MbKtDACKNgAEqXAZet8BdxVkE8oA6AgN5KvkMcDf1QX0wFE4VKuNpsCt7ZNEXUTwEhBGJtDFg_pHxYmdo-dukmy5GhRzugHuDm35KSEI29uHKnIzclFe4g", "width": 575}], "place_id": "ChIJG-Bf_XpklIARer-HGiww0u0", "rating": 4.3, "reference": "CmRbAAAAuqrVA2COk0Is-dLKx9fAnS_QHxE10kBsUywp8x4hwWZJ7RogyQOvJn_-xi0Vap48-YAPItqVZCns1489sNT4qz3J4qUqj7v1VVR1524YhT9Gh-Y8ERP_NWcVeYFC0610EhBhGtJvWOdgRzQgsPp2p2LuGhRYSdiW9Ch0V9EtbRnIz7rPCl2Hwg", "types": ["museum", "point_of_interest", "establishment"]}, "Legion of Valor Museum": null, "Rotary Storyland Playland Family Amusement Park": {"formatted_address": "890 W Belmont Ave, Fresno, CA 93728, USA", "geometry": {"location": {"lat": 36.7517187, "lng": -119.8235112}, "viewport": {"northeast": {"lat": 36.75245005, "lng": -119.8220946201073}, "southwest": {"lat": 36.74952465, "lng": -119.8247942798928}}}, "icon": "https://maps.gstatic.com/mapfiles/place_api/icons/generic_business-71.png", "id": "333844aed811a66e438945945302464544eaa90d", "name": "Storyland & Playland", "opening_hours": {"open_now": false, "weekday_text": []}, "photos": [{"height": 1536, "html_attributions": ["<a href=\"https://maps.google.com/maps/contrib/111300226045677720395/photos\">Rotary Playland</a>"], "photo_reference": "CmRaAAAA_4MEDx8lAzKib6FhFh0NhX9-1qn37f0nv63QjJeiaWEhTStkoewCzQRDrZo5bldS-v_Ya9pg58tA68U31wLDZeSeBqMjE-2SnwBuanoeDlY4yVBAfF1HMQV3fr4Wqvk3EhAwGB2BYPS9olqsvwZ03BJ-GhRb_mHBB_YjSx4Z53jyZT705e3zpA", "width": 2048}], "place_id": "ChIJSa91QTJnlIAROyXImjFluxA", "rating": 4.2, "reference": "CmRbAAAA-a5T8i1HXG0F2e7_jlSJSb3bdikM4byDfiosWfdnjxt9E64LEtrmOpIG81ILHYV9a7Zol1Z3Xp9ym4mvzJe2TLXsgCgZE3jyqeFmesWQT-25Z1TbC7m9875qIPOIOEx7EhBUT7CQLmx4YFZq5TIXGq0bGhTL9dsQEUSTPNYXe5-LxjRDRnt66A", "types": ["amusement_park", "point_of_interest", "establishment"]}, "Fashion Fair Mall": {"formatted_address": "645 E Shaw Ave, Fresno, CA 93710, USA", "geometry": {"location": {"lat": 36.8065788, "lng": -119.7761571}, "viewport": {"northeast": {"lat": 36.80792862989271, "lng": -119.7748072701073}, "southwest": {"lat": 36.80522897010727, "lng": -119.7775069298928}}}, "icon": "https://maps.gstatic.com/mapfiles/place_api/icons/shopping-71.png", "id": "a0e557474ab15f86a385f01279951d2847b181dc", "name": "Fashion Fair", "opening_hours": {"open_now": true, "weekday_text": []}, "photos": [{"height": 2988, "html_attributions": ["<a href=\"https://maps.google.com/maps/contrib/101631542259029303792/photos\">Kaushal Patel</a>"], "photo_reference": "CmRaAAAAGh1GdKQWw-6hPwHBSxJ96SDonqmrGo1sak1-G7pl8_F2sj8C7pqgsseaNou1l_-KBstJkHhndgamYZjUqcdQVSTeUiGIr-ONKjMc2Iub4vI-pdqz0QtoGqvmdMtbIZ2OEhDrqAundQcnogyNj8kizxo1GhSxbdwUiOqghGDrieCxFMMQW1RLew", "width": 5312}], "place_id": "ChIJMW3iRHFdlIAR7sixmXtYkFY", "rating": 4.3, "reference": "CmRbAAAAg-aAdW_LXoBY_5i9jif8PtwVBRYh6JH9cpi2z5T-RVze9_bATJyIql0RL0gLM9bqJGsbxpTSAysADu0CmNQOylQQku0Hqpidr1EmAAYptpuAqyhNTvV8c6DQt72rEKaWEhCYdQ_oyzFe5AlLvFgiZCW9GhRTbBWkyIuyOLKmxf_fLiIPY5hJdg", "types": ["shopping_mall", "clothing_store", "store", "restaurant", "food", "point_of_interest", "establishment"]}, "Tioga-Sequoia Brewing Company": {"formatted_address": "745 Fulton St, Fresno, CA 93721, USA", "geometry": {"location": {"lat": 36.731533, "lng": -119.788172}, "viewport": {"northeast": {"lat": 36.73288282989272, "lng": -119.7868221701073}, "southwest": {"lat": 36.73018317010727, "lng": -119.7895218298928}}}, "icon": "https://maps.gstatic.com/mapfiles/place_api/icons/generic_business-71.png", "id": "d9629d4fffbc5488d1e76bc595a5f6344f80b080", "name": "Tioga-Sequoia Brewing Company Beer Garden", "opening_hours": {"open_now": true, "weekday_text": []}, "photos": [{"height": 1536, "html_attributions": ["<a href=\"https://maps.google.com/maps/contrib/101650736899660228484/photos\">Tioga-Sequoia Brewing Company Beer Garden</a>"], "photo_reference": "CmRaAAAA9WkHa75N58CryrEOcmM2iFYDy3EChkUlC9fW6UoaYjovJXCKrYQgTx_HJ1FJOW-OyCGTcmtVmsFtNyRICIYeiE-tsOk7SfuJNFOOZGbmx_RH3paXoOWKDC9NXcFSjvsQEhB5Orvoa8yDjMx1XKZvnlghGhRLcqyoSGC1qHJuC4YrTDKWZW-aQw", "width": 2048}], "place_id": "ChIJ0Vw1UCdelIARc2ACSggGsRM", "rating": 4.7, "reference": "CmRbAAAAFdIjjCNs5o1Tn5XG8Z8fgfY7fYhL6IGoRSsLWF4Kf3DRij8OlFAerMyPzAvRDbVh_Bszg5To2lfUoCobRoAOuA5uFdhXojGMh0GUiRIETYZx-jgmvZA15-jYe_D_9NcoEhA-DYCwU3z_RGqgvBXLc2qoGhTdGIRSF5WhVTApx-7rb6dRjp7G3Q", "types": ["bar", "food", "point_of_interest", "establishment"]}, "Arte Americas": {"formatted_address": "1630 Van Ness Ave, Fresno, CA 93721, USA", "geometry": {"location": {"lat": 36.7411456, "lng": -119.795792}, "viewport": {"northeast": {"lat": 36.74240402989273, "lng": -119.7945707701073}, "southwest": {"lat": 36.73970437010728, "lng": -119.7972704298927}}}, "icon": "https://maps.gstatic.com/mapfiles/place_api/icons/generic_business-71.png", "id": "a63548cac3c9185012081f86b7d29636fc9b2ca3", "name": "Arte Am\u00e9ricas", "opening_hours": {"open_now": false, "weekday_text": []}, "photos": [{"height": 1152, "html_attributions": ["<a href=\"https://maps.google.com/maps/contrib/101369235227270272637/photos\">Priscilla Chaidez</a>"], "photo_reference": "CmRaAAAATOLrMcmG0UIDnXi1xJ3tMPrDw4g48169tf35pMDFviUZGvttFZ09OXOJ80jHx0uZmcPzswAPqy1C2_xwXAJ4JhK0lNsQm732_GU9CMv-FbVSTaYKnCLDJ9O43OqsWw2QEhC7pSVIZf7Uajn9tphiTLNnGhRwRFrj3CB14He5ZGmtekX2Lqv4BA", "width": 2048}], "place_id": "ChIJqWMKOqRglIARYumPWrhq4ps", "rating": 4.6, "reference": "CmRbAAAAIEfzo-axcgwU-WRlCLAhMUvV_4sxnWotq50u1s8fr-G3VDZN8CLQKYCNoSiQ5GVz-cF38DcACj-VOcAfcY7WXLS29Yd4L5_CNZCOx_PWRTiGYYF-pSQ9AdmZAlzYpx2rEhAnpZb-cjRWnDCF5EH0ItmWGhSCQ1NjrWxnepshX5UG4Zi6SLEHAw", "types": ["art_gallery", "museum", "store", "point_of_interest", "establishment"]}, "Fresno Convention & Entertainment Center": {"formatted_address": "848 M St, Fresno, CA 93721, USA", "geometry": {"location": {"lat": 36.735006, "lng": -119.784965}, "viewport": {"northeast": {"lat": 36.73617602989273, "lng": -119.7838726201072}, "southwest": {"lat": 36.73347637010728, "lng": -119.7865722798927}}}, "icon": "https://maps.gstatic.com/mapfiles/place_api/icons/generic_business-71.png", "id": "9299401f4e9ed27926bc63313fb94f099172c9a4", "name": "Fresno Convention & Entertainment Center", "photos": [{"height": 667, "html_attributions": ["<a href=\"https://maps.google.com/maps/contrib/112584755909865677547/photos\">Fresno Convention &amp; Entertainment Center</a>"], "photo_reference": "CmRaAAAAqtiWkKAX7K82agNDEv9NsnR3K5fZZiFINIhJjgKxv0B-XRazZ6qlxm6Cb7FyBy22HLAxfeRGZ3cJH4ZbfOrx9IgrmrVOl21dsQzxIh6FC-p6c5PvmuKuD575LXZPj_piEhC3q-4fifHJvyFpo3sJQcf-GhRl7H9yl4HbOShi_naV8hE-XGvOhA", "width": 1000}], "place_id": "ChIJvZGaoCFelIAR7ZGB-s8cGN0", "rating": 4.3, "reference": "CmRbAAAALejGc1eZdWkSEe-bfCkYDYiR8KJQgU8_rvaxN98Fd31YesQd1cp7_3tQFCNFdnPUsyJX7ZtKjVpFpxA6H8jd1wKZAyOItNSJNZ_zp9BR-hqLkD88r6Nq-xWOEMzywIsZEhAJmJxkqTtij-DUJy8PLbnxGhTGMVz7ZQZTLS0hKOQ9F3qoIn4t9A", "types": ["point_of_interest", "establishment"]}, "Blossom Trail": {"formatted_address": "Fresno, CA 93725, USA", "geometry": {"location": {"lat": 36.7067572, "lng": -119.699481}, "viewport": {"northeast": {"lat": 36.70810702989272, "lng": -119.6981311701073}, "southwest": {"lat": 36.70540737010727, "lng": -119.7008308298927}}}, "icon": "https://maps.gstatic.com/mapfiles/place_api/icons/generic_business-71.png", "id": "8b97856644d75df54e01f71d922f44b6e8414b5f", "name": "Fresno County Blossom Trail", "opening_hours": {"open_now": true, "weekday_text": []}, "photos": [{"height": 3830, "html_attributions": ["<a href=\"https://maps.google.com/maps/contrib/102142804735963665325/photos\">Ron K.</a>"], "photo_reference": "CmRaAAAAU2hl_aliT1gtBEKWBX0-qKzmtv6jpaQRiCtXFYxFDyL6ejg6I8nR0S3gplDA79P3we7s3e8LqE2rROHqsKT0U9xHbumnxmBp-p8G3knBCrbspeFP9GofeGh0GP7ZCc0iEhChXDf1AoCCEsKMC0EGItKCGhTM039ikxPcZVPqm_zByPFY90qD5g", "width": 5745}], "place_id": "ChIJAQAAQCFelIARUlt1qr9mqH0", "rating": 4.3, "reference": "CmRbAAAA_prGHx5PqoJ1gEsQ8Fo9sChuThVo7enweQaGoc94hNFL2WXLUjv7McOV_1MXTfXdDVWszb8La3cH-mcTUzzbvZQurWx_u-8pY7qeuBbRa53YZu4Bj0O2BEnzm8aLFJWaEhD2TZoynf0o7cYT2s65pNswGhQCHPnkF_xwzt6DgRJYGbcmEioWwg", "types": ["point_of_interest", "establishment"]}, "St. Johns Cathedral of Fresno": {"formatted_address": "2811 Mariposa St, Fresno, CA 93721, USA", "geometry": {"location": {"lat": 36.741181, "lng": -119.783098}, "viewport": {"northeast": {"lat": 36.74253082989271, "lng": -119.7817481701072}, "southwest": {"lat": 36.73983117010727, "lng": -119.7844478298927}}}, "icon": "https://maps.gstatic.com/mapfiles/place_api/icons/worship_general-71.png", "id": "ad1b615f5df4b0f9c36bcf5152a157cd0f02ae00", "name": "St John's Cathedral Hall", "opening_hours": {"open_now": true, "weekday_text": []}, "photos": [{"height": 717, "html_attributions": ["<a href=\"https://maps.google.com/maps/contrib/109209003323329477937/photos\">Juan Jim</a>"], "photo_reference": "CmRaAAAAVKddxCWVgMu8hS1NtlBEAJmtmtHO--dLmjDQkiK4EeArU79UHTb0xubR4gcDnM9FMDERZBZcULk-duzbPZIbYs2GWaQGMeyHh-5jFPhSE-4-P5n4cP_kGQY6H8rdXhAGEhAoJU9XHmcTyA6HlkMTSl7pGhR56XCB0SS7u9miqnP-_lbHJ8FgFg", "width": 960}], "place_id": "ChIJL2lJKRlelIARj-NNkPHxQuU", "rating": 4.7, "reference": "CmRbAAAARIfjb28qTk3mk0M14Z_er7hRQ94wUFKMok6DkTFBFu4CtM1NY0cHQr5X-TCweySGigjuJ7uC512hnCd43livlEFA8uyHToEDDR7G-Ata6xpqjVk5PVLC8ioCmMwjJnV2EhBhyHNO8UHFJGb0qzgmgR9iGhS1CBG10V3hFouhs3HNlr3mooCPQg", "types": ["church", "place_of_worship", "point_of_interest", "establishment"]}, "Save Mart Arena": {"formatted_address": "2650 E Shaw Ave, Fresno, CA 93710, USA", "geometry": {"location": {"lat": 36.809691, "lng": -119.7385011}, "viewport": {"northeast": {"lat": 36.81159097989273, "lng": -119.7372069201073}, "southwest": {"lat": 36.80889132010728, "lng": -119.7399065798928}}}, "icon": "https://maps.gstatic.com/mapfiles/place_api/icons/generic_business-71.png", "id": "bf8cc8b37db07774a82b296b44ed34a9c2d44d7e", "name": "Save Mart Center", "photos": [{"height": 2322, "html_attributions": ["<a href=\"https://maps.google.com/maps/contrib/110013940949301028064/photos\">Angelica Lopez</a>"], "photo_reference": "CmRaAAAAVPPRUX96pwF6hGEbm96cx92yghSuYdlj-P2Q-ioqwHH7BtoQK88Bbm9v9Hn96l2M2AttDmW8GleMfdv7GysUAle4H0H0HSZl6zUD-2VHlaM5Oz4ykjbo8PFh1gFeRubnEhD559OKx2iQ-l1a9lYofMEhGhRDhVrDML9qDJU11gMzJ0_umzF8VQ", "width": 4128}], "place_id": "ChIJP7S_jVVclIARCkyqlP-4euM", "rating": 4.4, "reference": "CmRbAAAAHDK_ZQ4qBJVHyo3TqvRVN_Zk4OjJj37ei-EFfwQR8J3fd-ug8yEKR2bWUx0Fq4NJZlgGrxOpUG1tm8e21r5V1yLzWJ86tZwVvGu5w6TIXaRHyrJg8oIgOhTZHledg0ttEhBqxwNOVYXxISP_qjGKOwr5GhRvBbWFJmooTkCy-h0b8QcHCmDp5g", "types": ["point_of_interest", "establishment"]}, "St George Greek Orthodox Church": null, "Fresno City Hall": {"formatted_address": "2600 Fresno St, Fresno, CA 93721, USA", "geometry": {"location": {"lat": 36.7396327, "lng": -119.7845327}, "viewport": {"northeast": {"lat": 36.74146312989273, "lng": -119.7837141201072}, "southwest": {"lat": 36.73876347010729, "lng": -119.7864137798927}}}, "icon": "https://maps.gstatic.com/mapfiles/place_api/icons/civic_building-71.png", "id": "622eb438f88c7d51689d35e1e0bbb47662f94c73", "name": "Fresno City Hall", "opening_hours": {"open_now": false, "weekday_text": []}, "photos": [{"height": 3024, "html_attributions": ["<a href=\"https://maps.google.com/maps/contrib/113290824781967155512/photos\">Felipe</a>"], "photo_reference": "CmRaAAAAD0AD_ByD459FtlVEttIMNFGBbD-MmbfO-UYDCFUrGuE16tjA5MJil7_8VKmRhIBBYHaJ1GxuJSp4KPyWf1-mZlNXt-IWcRbRate7McoEL402nlpxfoJqSoaxXtiNvn4pEhCiFPXwZfNcR_iLaG9-XljCGhQJf_0OPowUoIoSDBxS8-8A_dIJaQ", "width": 4032}], "place_id": "ChIJyVkgGR9elIARQKxe9PNSyd4", "rating": 4.5, "reference": "CmRbAAAAIOWxG03ktUHWRmsMzq-Sm_4ROb-r7NnOR3TnihoCtl4_kF4SX9uy2hA1rPHwj_rupiMVqHDii0ornYFhnq1yG4_r-XFDb62ZW7Z3qBVXFLsWcnHq8rlh9YPzazZ3zRTIEhCaH_nrseq3oKOdMtZHyKWnGhSay6AxEl37_lq9xPLHnGNq2WItbg", "types": ["city_hall", "local_government_office", "point_of_interest", "establishment"]}, "Moravia Wines": {"formatted_address": "3620 N Bishop Ave, Fresno, CA 93723, USA", "geometry": {"location": {"lat": 36.787621, "lng": -120.0058473}, "viewport": {"northeast": {"lat": 36.78896927989272, "lng": -120.0047767701072}, "southwest": {"lat": 36.78626962010728, "lng": -120.0074764298927}}}, "icon": "https://maps.gstatic.com/mapfiles/place_api/icons/generic_business-71.png", "id": "bf31acae5cf3dec8c53f4d6825ce39db1e2d9730", "name": "Moravia Wines & Event Venue", "opening_hours": {"open_now": false, "weekday_text": []}, "photos": [{"height": 315, "html_attributions": ["<a href=\"https://maps.google.com/maps/contrib/105418201979654499942/photos\">Moravia Wines &amp; Event Venue</a>"], "photo_reference": "CmRaAAAAoeevFopdKLldHZV4u0fzzJnHaohQZx4kRXL3svT8DVtnaNL--RL9rPPaf40CKgRtjw7pm3txhWRzU02_KF1KWj_u4KQT0vaqYRpwPeRnRKPRGUvFscZFkArtOaOXe0lNEhBizdkovVURFiwQLPxD3cEgGhRiygTb5yMfBzi3pk_JurR0hz56Hg", "width": 851}], "place_id": "ChIJe0NYiW5wlIARAML7IEqI6yI", "rating": 4.8, "reference": "CmRbAAAAvaE4HUKfBn8T9vvaM1OgUbHKQLRHXXUkP6cm41WMXb1UCa8iczsdt41_cZn8pWOk6eQa9gbIKPgyeszrFDW9b_vemuqZulGW5RwQhY5x2AFJVZpnagD2tU0Zr2UjBvJnEhCIqv9_nW5m-BY0_UZ-E2nVGhRvg7VYkBATwe7Q-1PSUqLBiuLK5Q", "types": ["food", "point_of_interest", "establishment"]}, "Old Fresno Water Tower": {"formatted_address": "FAC Water Tower, 2444 Fresno St., Fresno, CA 93721, United States", "geometry": {"location": {"lat": 36.7392069, "lng": -119.7872217}, "viewport": {"northeast": {"lat": 36.74055672989272, "lng": -119.7858718701073}, "southwest": {"lat": 36.73785707010728, "lng": -119.7885715298927}}}, "icon": "https://maps.gstatic.com/mapfiles/place_api/icons/generic_business-71.png", "id": "de488a192c5232a501d4998e9aeb1430243cef14", "name": "FAC Water Tower", "opening_hours": {"open_now": false, "weekday_text": []}, "photos": [{"height": 720, "html_attributions": ["<a href=\"https://maps.google.com/maps/contrib/102450527013155926699/photos\">FAC Water Tower</a>"], "photo_reference": "CmRaAAAASDRwBKZ9b3fe2ZYVJRrRkUgrTy_2ypNR3NDbJ0uT_KLsgWfqTtdvcNxj-dyZon0-t8lYlnr9qQQGIp7ue-r23qlj9MgKxgzzwmmOUUgPa11_Ab-IhVz8-CxlY0kK9Bl0EhBXVMmJHEWROs0E9V_5lrPVGhSN-1TGjeDS9YGS9UYJEeokco99mQ", "width": 960}], "place_id": "ChIJCxJWSh5elIAR9IMYyLajvrs", "rating": 4.5, "reference": "CmRbAAAA75DtrZym3vaQu_S2EErxjWoGPIDk50DOcgI_2heq5w53pdSE8GdbERa6YdYuFmDPogK3rTFB7MyB42RADA_6sSJsXzsdXSYuyst5vvQyfYrUzVQ8L_ruzBwTnxTWOYMMEhAdwb6EEQ85R0nXVT31w6PXGhQWSeo7ek8bfiW0-8GeTNwxzXZ0Yw", "types": ["point_of_interest", "establishment"]}, "Lost Realms Pets": {"formatted_address": "8059 N Cedar Ave, Fresno, CA 93720, USA", "geometry": {"location": {"lat": 36.8531122, "lng": -119.7581454}, "viewport": {"northeast": {"lat": 36.85447207989272, "lng": -119.7561475701073}, "southwest": {"lat": 36.85177242010727, "lng": -119.7588472298927}}}, "icon": "https://maps.gstatic.com/mapfiles/place_api/icons/generic_business-71.png", "id": "58ab3762f9a01a7ed22b7ecc31690bdb76472a1c", "name": "Lost Realms Pets", "opening_hours": {"open_now": true, "weekday_text": []}, "photos": [{"height": 720, "html_attributions": ["<a href=\"https://maps.google.com/maps/contrib/109644164407236633955/photos\">Lost Relm Pets</a>"], "photo_reference": "CmRaAAAAu0CeTZF-KgPlfv1Uf7j7o-fTOjLzXzWC_Dv4lWkH9AGhJfoVuZbCaUu8lXwAZFJXmee5gdRpdm_XOV9pDG6Sp330xKUPppB7s0UPI7_GJc4vnlj2u-T6S2FguJ4vuGkdEhCLytn0ZQK2Amz_ZxV8Y4x1GhSKbsCrHRQedAbuJodCtOP-UzxNEw", "width": 960}], "place_id": "ChIJNYLJjcVClIARm0dY3NxNuVc", "rating": 4.5, "reference": "CmRbAAAAqxqy71uMUletzKYdoBV6DfjOCDdC2RjUQAI4mwFz-MGCA-XXiVuliRde7Y2u9_sotv6XCFuGMU0QgFYCkkjy682R1LUIeOc16opQ-jdzDfWn5kDD8RpfiniBlcuT93GOEhCB_GnvSnj8D9D_fI142z4NGhRx32VVYFf_oWQ8u_cq5aaLjzqRmA", "types": ["zoo", "point_of_interest", "establishment"]}, "Fresno Art Galleries": {"formatted_address": "1821 Calaveras St, Fresno, CA 93721, USA", "geometry": {"location": {"lat": 36.738897, "lng": -119.7985254}, "viewport": {"northeast": {"lat": 36.74015367989272, "lng": -119.7970706201073}, "southwest": {"lat": 36.73745402010728, "lng": -119.7997702798927}}}, "icon": "https://maps.gstatic.com/mapfiles/place_api/icons/generic_business-71.png", "id": "975686e495eb306df55883f8fb2092f388a181e0", "name": "1821 Gallery & Studios", "opening_hours": {"open_now": false, "weekday_text": []}, "photos": [{"height": 1325, "html_attributions": ["<a href=\"https://maps.google.com/maps/contrib/107818172487468158092/photos\">1821 Gallery &amp; Studios</a>"], "photo_reference": "CmRaAAAAnMZjdOiKW8Hp6533jh92iZ31qNzu7v55oRTS0M3ZErYOwPP-p1dm3X4tdpBodjTEX1Rqcs1hHa540tMPs3EpCgLVvrRQ6tgH0zwMtcWTkGXCKCOojRUspUM9cl_3_TjXEhBy1PMkshV4yr-pAesAuT3aGhSElNgtAEL1HZmuiEy7Cv3DRFRQ0g", "width": 2048}], "place_id": "ChIJz0-Fm6RglIARypmHfytZsx8", "rating": 5, "reference": "CmRbAAAAhpllYmNZ01JzgFJT_7sHc_oQoA9B_ojnWnfMh9q8zQydFoxN6meUmoEMNKbQmJk6arAoM-izYdZlqs0-Iyo5z71hGgCIdkrdNRxJSSNNLjOYpineDbIUEutOKYbnO0I9EhDWgEozsRLG1_DuOdBe-09vGhRTKW9EX6me4m9LRy9HecIQpz2weA", "types": ["art_gallery", "point_of_interest", "establishment"]}, "The Tower Theatre for Performing Arts": {"formatted_address": "815 E Olive Ave, Fresno, CA 93728, USA", "geometry": {"location": {"lat": 36.7578397, "lng": -119.8011849}, "viewport": {"northeast": {"lat": 36.75910272989272, "lng": -119.7998304701073}, "southwest": {"lat": 36.75640307010728, "lng": -119.8025301298927}}}, "icon": "https://maps.gstatic.com/mapfiles/place_api/icons/generic_business-71.png", "id": "d3ca9510e746310cc3c488ea8f385e1dc03d5071", "name": "The Tower Theatre", "opening_hours": {"open_now": false, "weekday_text": []}, "photos": [{"height": 853, "html_attributions": ["<a href=\"https://maps.google.com/maps/contrib/104035908733684441576/photos\">Janna Christensen</a>"], "photo_reference": "CmRaAAAAZv0JoEVMvyb_Qhf1nun5W_HA4tui7XHFYFNltIZZQfbBYGeQu45vFMQfd7tOQITzfYPgE76qJlUeJ1Zg6fh4Nhvwix8ZROMerts_kUl6F-A0hQN5me712CTQ7x1WjqjmEhBhi_1E94B8XjTv3208jX-5GhRZDpzNhsEEiYk6JiFM2xgIOYQbDw", "width": 1280}], "place_id": "ChIJdTZMD05nlIAR9TtEGxzSbVs", "rating": 4.7, "reference": "CmRbAAAAsjcnXzdUgy7xnA6b0plba62EPM8liNPnqqC2Th1p9HCgLPsD_ZsPuzHns5Uun4QWmZ-ZG6jNEMo73jth1qQvopYHRFhFStPAPtgHMTSy5u4E5_SImdDGkqBYqm5uKt6EEhA7eUQ8JDGWaeWud_JuD0t9GhSed3WGMT9DSJ4vL_PfXzTq-OAHag", "types": ["point_of_interest", "establishment"]}, "Vineyard Farmers Market": {"formatted_address": "100 W Shaw Ave, Fresno, CA 93704, USA", "geometry": {"location": {"lat": 36.8096892, "lng": -119.7910356}, "viewport": {"northeast": {"lat": 36.81049427989272, "lng": -119.7896804701073}, "southwest": {"lat": 36.80779462010727, "lng": -119.7923801298927}}}, "icon": "https://maps.gstatic.com/mapfiles/place_api/icons/shopping-71.png", "id": "5a0ee89f27300737f4a49b40256ee672f67c82e9", "name": "The Vineyard Farmer's Market", "opening_hours": {"open_now": false, "weekday_text": []}, "photos": [{"height": 1365, "html_attributions": ["<a href=\"https://maps.google.com/maps/contrib/112200438808044211855/photos\">The Vineyard Farmer&#39;s Market .</a>"], "photo_reference": "CmRaAAAA8iMA7_LDf0WAhqDiJqknvSYdN9OHGpiOqvLNHDUukbDHXM926b0hpTSRmTdacOT5s_kCd5MvaHtoiQENPcB6YEPQtFHICJQyFHLxFEfIQBYmVfGKJr5vf1duAiwhOv4sEhA_dK0TfAiQZVxzWMmSCyaGGhTGwwF9HGhAplRgdaI4JWN_PNCqpA", "width": 2048}], "place_id": "ChIJu4oGLIpnlIARZz_OPIRy2-I", "rating": 4.6, "reference": "CmRbAAAAvpONrwJgFKMjW8Ne2TkFZZ1M5aHOg2jMM-5nDibp1LSKTjXmmFWxkHcdDBXz9gzPtVzURAtbfmDqJV_SLNwuXj6H9jqEg2S37UP6i4TIk2JXFqeDELLCgo9zWAhKgVvNEhByr6B830dg445PbOjkXP89GhQzffV4ALtEVuGBjpWbYZ_Sk9DrVg", "types": ["grocery_or_supermarket", "store", "food", "point_of_interest", "establishment"]}, "LoMac Winery": {"formatted_address": "2674 N Westlawn Ave, Fresno, CA 93723, USA", "geometry": {"location": {"lat": 36.7743341, "lng": -119.9513779}, "viewport": {"northeast": {"lat": 36.77568252989272, "lng": -119.9503055201073}, "southwest": {"lat": 36.77298287010728, "lng": -119.9530051798928}}}, "icon": "https://maps.gstatic.com/mapfiles/place_api/icons/generic_business-71.png", "id": "600f7c3288896f378a65f6ce6bdd4d3e86332c65", "name": "LoMac Winery", "opening_hours": {"open_now": false, "weekday_text": []}, "photos": [{"height": 2448, "html_attributions": ["<a href=\"https://maps.google.com/maps/contrib/109324087779356429272/photos\">Joseph Potthast</a>"], "photo_reference": "CmRaAAAAOUdSVetJWQ4mGb2Qa7k_VmmQJ6_40dGB-O-qB32miBB1F1UG4x5qwyGkdS0ApNGA_2HSr-55rMqpc3o0P9ME2e_dO3yf31-L01j1F56QnY8m061H3SjSMolVo5TuaTlmEhDZ7fYudHFpwIZWJklifDzoGhRZ6vyQoMClQ0-30udz328sZjrqWQ", "width": 3264}], "place_id": "ChIJ02m1-kFllIARNkNbuj75hQw", "rating": 4.7, "reference": "CmRbAAAArYJwQR9xvbcPmhk0hx-Zr0KfSwXRvTNevYgnJMZtTfTHZWIoO0GYhTNnZ-DogF2vDdC261d8O71dYem8TtCPlvxFIPUwNxhNv3VAybK3Uj3AxlyoIZPgubOPsEEebf7IEhDQ755It0BO7k42NPlzLQlBGhSUx77SfYxAlD7RFNO4MKLwLMVwTA", "types": ["food", "point_of_interest", "establishment"]}, "March Field Air Museum": {"formatted_address": "22550 Van Buren Blvd, Riverside, CA 92518, USA", "geometry": {"location": {"lat": 33.882707, "lng": -117.266674}, "viewport": {"northeast": {"lat": 33.88405682989272, "lng": -117.2653241701072}, "southwest": {"lat": 33.88135717010727, "lng": -117.2680238298927}}}, "icon": "https://maps.gstatic.com/mapfiles/place_api/icons/museum-71.png", "id": "f97e7819c7404cccd31de6a0a5956d5fa57d0a31", "name": "March Field Air Museum", "opening_hours": {"open_now": false, "weekday_text": []}, "photos": [{"height": 676, "html_attributions": ["<a href=\"https://maps.google.com/maps/contrib/116558442892906155042/photos\">A Google User</a>"], "photo_reference": "CmRaAAAAtk93seF4L7dFM16LPCBzYE0vN85DfiKLdXjXWl7wR11FHSqN8aiDxZzc-O9RowF5eigBscH8x88XtLslRqc2abD2gA2XfMRbopqS8J7gYtc8ls3-07iMn1Y4bJWtHH5tEhBrcxgn12zRV3rrUrXTVs-BGhQdd2aAwpRZy7EPUz5cTlFnF0uLTg", "width": 1270}], "place_id": "ChIJ8YxPByik3IARZydobAf6ZWg", "rating": 4.7, "reference": "CmRbAAAARTGpv4tU637m2_l8nWLdEpBc2vIyJJeMl-glA6xFBWcVIgTRZHe23gsBh_6YubZXscfwZWBBJCtffjZHJ7Qo9hhpEXAn57myOO_bu15ArJwFvn9HW_9Z5E-Zi9KCyNUXEhCwI5sO5UXoO1fzZEFtl1YQGhQsMsUgTiTEt_LpNXMTLgldNDjSMw", "types": ["museum", "point_of_interest", "establishment"]}, "Riverside National Cemetery": {"formatted_address": "22495 Van Buren Blvd, Riverside, CA 92518, USA", "geometry": {"location": {"lat": 33.8856694, "lng": -117.2793424}, "viewport": {"northeast": {"lat": 33.88701922989273, "lng": -117.2779925701073}, "southwest": {"lat": 33.88431957010729, "lng": -117.2806922298928}}}, "icon": "https://maps.gstatic.com/mapfiles/place_api/icons/cemetery_grave-71.png", "id": "c35973d10eb161a1f7ba58cf9b29a8c9093a5c7c", "name": "Riverside National Cemetery", "opening_hours": {"open_now": false, "weekday_text": []}, "photos": [{"height": 2988, "html_attributions": ["<a href=\"https://maps.google.com/maps/contrib/103585769640283879341/photos\">Ernie Cardenas</a>"], "photo_reference": "CmRaAAAAo9aYkTBe2EP9vNADSaToL06-TF9C4pvKKTqIjyTGF6Z63L9k-UvvN2KtlJfilwk-B9wuB9M0r3AMb33eL8YQMJP_CLVGLLYDN1AE46IwUVfh3u8xDb7SWtEU-FMI0FemEhCjzMCUJsUgscaROlx0N_w4GhR8BQbbc9AUwBPRGGzDXxjC_fBevg", "width": 5312}], "place_id": "ChIJY49n9S-k3IARNVrfso0kbBU", "rating": 4.7, "reference": "CmRbAAAAv3sqTh7LyT2rNVxqd6_2FoS53jDob9GFMMQ5YV_nh-Lss1n28f9Bqdqnb6DQRZr2qhABq4XlNoMB4UeX870iGsNieSNP9xUf0k6KPqbr0TDGInh3cVLq8kW0ajRwDAxeEhB04BAz4AWwMsEaC5kPvQStGhSaXM6rokbLtI-qWW0Bi-8vbc1rRA", "types": ["cemetery", "park", "point_of_interest", "establishment"]}, "Mount Rubidoux Park": {"formatted_address": "4706 Mount Rubidoux Drive, Riverside, CA 92501, USA", "geometry": {"location": {"lat": 33.9843294, "lng": -117.3925817}, "viewport": {"northeast": {"lat": 33.98670270000001, "lng": -117.3909275201073}, "southwest": {"lat": 33.97720949999999, "lng": -117.3936271798927}}}, "icon": "https://maps.gstatic.com/mapfiles/place_api/icons/generic_recreational-71.png", "id": "c8bc88eab3b2a0f465e8faf2b62daf73cb79701c", "name": "Mount Rubidoux Park", "opening_hours": {"open_now": true, "weekday_text": []}, "photos": [{"height": 3376, "html_attributions": ["<a href=\"https://maps.google.com/maps/contrib/103632214132661383687/photos\">Brandon Bryan</a>"], "photo_reference": "CmRaAAAA-F8GE0YfZ5AJgnksYrrbGpctf1ul_UkHKLEYiAkHYNkJNDL7tSs9FUYKZ5PWtHaXLqkVqyf3tYFLUzPmTHepXU_L40SfWb8WTWa8_u3wRi3NBZi1pVCDCeMIJ6vEQBzvEhC_ipiIdEGyn7aOI99nulagGhSEoEB3wJZvQOUmtjLVnREOlXNxzg", "width": 5064}], "place_id": "ChIJuaQkRomx3IARJdMAyGxo1Gg", "rating": 4.7, "reference": "CmRbAAAAzFxMHSSZRF9FHdT5KqYrYCpHPySbeGBCARaqbGTgg8K8pSNFnB2h-oJrh-eeXCDAtgTqwK6RnjqefxQqQGJri2pxw2AqbUAhwbhm8aJAFJRx_naqT5hGTS712QuBhgWEEhA3wZdABAtw0J_S0WChLJNxGhSp0oY7j94eYAWWvFmeuHR8_6a1uA", "types": ["park", "point_of_interest", "establishment"]}, "Mission Inn Museum": {"formatted_address": "3696 Main St, Riverside, CA 92501, USA", "geometry": {"location": {"lat": 33.9830416, "lng": -117.3734795}, "viewport": {"northeast": {"lat": 33.98443797989272, "lng": -117.3722299201073}, "southwest": {"lat": 33.98173832010728, "lng": -117.3749295798928}}}, "icon": "https://maps.gstatic.com/mapfiles/place_api/icons/museum-71.png", "id": "6c5d9aa4038675ef34f967a4cef47e9f717d0d5a", "name": "Mission Inn Museum", "opening_hours": {"open_now": false, "weekday_text": []}, "photos": [{"height": 1536, "html_attributions": ["<a href=\"https://maps.google.com/maps/contrib/117971435749978074416/photos\">Johnwayne Stroud</a>"], "photo_reference": "CmRaAAAAsYfdZ-f0_ZwRbCiLOZfUost1VFb2Y4L2HdGuQPpfw4mtuQ8CP7zeGeUQpox1Lxph4rId02jdHjbFGRwQaqayL90KVIUIp5FFG4z_G3PipvSKz0MPh6o28RrUbxpwhYfSEhDhoGxNLyLuycW6R8P5-1-3GhTGKs-CF7qJhahfbnL8Un1BGuNYWQ", "width": 2048}], "place_id": "ChIJG_zP_O-x3IARdlVa_3uVUk4", "price_level": 3, "rating": 4.5, "reference": "CmRbAAAAyHxq4FLlKKuTMijNF-c9SUAgz6OGry-CW6DkigCi-e_QSCiTtozAqiW4rMPBp5tPRCqFm_qrwE5qKGJSTn18Sw0bkE5iGBLzn1A1PbEV5MsZCZKvRIST1i0O1z04n_wTEhCZGyBWxyi4zdkdLwelKN_zGhScDXOjW8boqHPUF6EuExoX96QsIg", "types": ["museum", "point_of_interest", "establishment"]}, "California Citrus State Historic Park": {"formatted_address": "9400 Dufferin Ave, Riverside, CA 92503, USA", "geometry": {"location": {"lat": 33.8992834, "lng": -117.4261913}, "viewport": {"northeast": {"lat": 33.90074827989272, "lng": -117.4249403201073}, "southwest": {"lat": 33.89804862010728, "lng": -117.4276399798927}}}, "icon": "https://maps.gstatic.com/mapfiles/place_api/icons/generic_recreational-71.png", "id": "9de91b5e96fdf874e6a9f1dfc219e2481e2aa642", "name": "California Citrus State Historic Park", "opening_hours": {"open_now": false, "weekday_text": []}, "photos": [{"height": 2988, "html_attributions": ["<a href=\"https://maps.google.com/maps/contrib/101947739824196660000/photos\">Christopher Michael</a>"], "photo_reference": "CmRaAAAAB2QJ0Wjec2DWLyYNtp_DwgovGXh-aPf_RmKcOI98x6ZbrSUIIPOL73DsP6TxnvO3-DsdKqie7SQ1Bb3xVB48AQERSpRuCyPC7w65vincGHlQGspsMlEF79GIEtbFa8Z6EhClwyO4QvhE1ah19qElK37MGhS0E0T351C5jO3kt47gZ5WsOIp2ig", "width": 5312}], "place_id": "ChIJr1mgg3m63IAR0tODlAZsACo", "rating": 4.6, "reference": "CmRbAAAAMa9sTfWpXy4FqW91ZFBO7TZ-d3OCVIZz1vu31LhXWQC4IbJR2HpxFlsFo5MbxAuL3LZSoK4RrkSPp3WSKmdV8qc1sl4-synlJjjTTk8RI-vr67bdiN9GOeSVFH4IUxl6EhCX1naR3lACGi2xI3r9QkghGhRQk_sxM5lOgoPKrIMcHA3o-IhclQ", "types": ["park", "point_of_interest", "establishment"]}, "Fox Performing Arts Center": {"formatted_address": "3801 Mission Inn Avenue, Riverside, CA 92501, USA", "geometry": {"location": {"lat": 33.983997, "lng": -117.37525}, "viewport": {"northeast": {"lat": 33.98519612989272, "lng": -117.3740030701073}, "southwest": {"lat": 33.98249647010728, "lng": -117.3767027298928}}}, "icon": "https://maps.gstatic.com/mapfiles/place_api/icons/generic_business-71.png", "id": "1569ba3f65f7aa9acd6723081e13479a9197f8bb", "name": "Fox Performing Arts Center", "photos": [{"height": 1080, "html_attributions": ["<a href=\"https://maps.google.com/maps/contrib/118039086389159243398/photos\">70lbs Of Life</a>"], "photo_reference": "CmRaAAAArCzBIA7EWqMbhcD7GKgeNhF4BhTI-ZstnVa4GB4qO27FFJi28xTK7INWqYNoUCw-9a1d493rnw8Mu2RDf3MfvRNuqLwTG4CzmGbKLrl_VYjhiRDRakvbhHZJsdGDHoX7EhAtpkDWB9HjJx0NvWS5JkKyGhROntjhL_jMOBOsKc08oZGF4-aLxA", "width": 1920}], "place_id": "ChIJafNYQfCx3IARA5iSnOWnHR4", "rating": 4.4, "reference": "CmRbAAAA2LE1g1Cb_jdo3j_dFHbQBpLpUula_TJpYSSnVaely9yqo--3xn6GH372XqVxyAAa7BLlhBC1QaPRHG3VfLJI-PV_PWQ-rq-NjOyZwJHEJQce8I65V0GrC_JzPS4eaq4KEhA4-wW8dpXiIMCtQn4PQg47GhQj4wt16bgC0mFvPgqsvyBH7V1mng", "types": ["point_of_interest", "establishment"]}, "University of California Riverside Botanic Gardens": {"formatted_address": "1 Botanic Gardens Drive, Riverside, CA 92507, United States", "geometry": {"location": {"lat": 33.971632, "lng": -117.320556}, "viewport": {"northeast": {"lat": 33.97298182989272, "lng": -117.3192061701073}, "southwest": {"lat": 33.97028217010728, "lng": -117.3219058298927}}}, "icon": "https://maps.gstatic.com/mapfiles/place_api/icons/generic_recreational-71.png", "id": "1bb6b78c44cd9488648d4fe88348aa4e5d8e4253", "name": "UC Riverside Botanic Gardens", "opening_hours": {"open_now": false, "weekday_text": []}, "photos": [{"height": 1456, "html_attributions": ["<a href=\"https://maps.google.com/maps/contrib/105078561812020334127/photos\">A Google User</a>"], "photo_reference": "CmRaAAAAxti020rFrIJ84e3RBQvUxu00a4Iq-zV0WNU31sCkJhtVVgWdBMHVbT0nBOf6RVPHpS3r_rd1VaWF1EUDZGpLA1_DH-J071EKeRREDks9VeBfuLA0JmlbjCjlPBmaF2MkEhDvdMpafLeMM2FTp5RJAhDhGhQhEdzqs2_05Dpo6KB-1Pdt0uEZIA", "width": 2592}], "place_id": "ChIJsdBsGlSu3IARLDPngzCG03I", "rating": 4.7, "reference": "CmRbAAAAh1l4ZklZItoGu7BfxniEGcwoN8hvySf9t7snWfGU0ndjXpTY_oYD9VHi7oZGOBaFHxTftfFw111HDvxXLPfzrRiJcYB157S_3Eej51xazkTO2JMKse13ajr3el2qVrRyEhDou9hJwlJoZEhwIIU8UO4TGhRW9ECNarIPi1orsLex97Yaf7XWNg", "types": ["park", "point_of_interest", "establishment"]}, "Whitewater Preserve": {"formatted_address": "9160 Whitewater Canyon Rd, Whitewater, CA 92282, USA", "geometry": {"location": {"lat": 33.987776, "lng": -116.655673}, "viewport": {"northeast": {"lat": 33.98941887989272, "lng": -116.6539419701073}, "southwest": {"lat": 33.98671922010728, "lng": -116.6566416298927}}}, "icon": "https://maps.gstatic.com/mapfiles/place_api/icons/generic_recreational-71.png", "id": "c9149eac9b67a3a59026002c3a19e75cc2bece93", "name": "Whitewater Preserve", "opening_hours": {"open_now": false, "weekday_text": []}, "photos": [{"height": 2988, "html_attributions": ["<a href=\"https://maps.google.com/maps/contrib/100651255891284274449/photos\">Emery Nolasco</a>"], "photo_reference": "CmRaAAAAgNg737oL6nGl8rC00HDTAiDfBLooQ-R6ek7v4iK8p3RO72Hti1tiVKzX7maMBWJYJvr5HnXibvhKx1EXx6q7C3H-25LHi_Ps68avF5TIBGWqPc0hx4NxJ4f-rXUgNQEZEhAnF9vsEJo2Pw5WLKxIP85TGhRpmhl2ITAfrrN4CrBlXq7m1-3aKQ", "width": 5312}], "place_id": "ChIJKW7hXX0824ARlTKQeQdiEc8", "rating": 4.7, "reference": "CmRbAAAAt10CvhHq3sn6UWwcveLWnhb1Y06kNBBrYZNUru6LFgNsnJvBFtM1RDx-cq3dFfsEjrDWMK2lC6WP9OUbqVF6Zr8FBltbDZOeuLOpuYZYfgX1x-sS0JtmLeFFDPtCmLZMEhDbAuhSQUwA_y9DU9Ee-LHyGhTCjyw-60D_jmF1cikCLekBOvoReg", "types": ["campground", "park", "lodging", "point_of_interest", "establishment"]}, "Van Buren Drive-In Theatre": {"formatted_address": "3035 Van Buren Boulevard, Riverside, CA 92503, USA", "geometry": {"location": {"lat": 33.9113137, "lng": -117.4364228}, "viewport": {"northeast": {"lat": 33.91266352989273, "lng": -117.4350729701072}, "southwest": {"lat": 33.90996387010728, "lng": -117.4377726298927}}}, "icon": "https://maps.gstatic.com/mapfiles/place_api/icons/movies-71.png", "id": "2b6a32193164fc1a0e945980e3dddf866bd77c5e", "name": "Van Buren Drive-In Theatre and Swap Meet", "photos": [{"height": 1536, "html_attributions": ["<a href=\"https://maps.google.com/maps/contrib/114923277714534715360/photos\">Van Buren Drive-In Theatre and Swap Meet</a>"], "photo_reference": "CmRaAAAAuZLt_vbM4dFvjYKToEOLn76i1TDtZs0zTrcQltzHfGmJ34aIvZtqE6WU9OjVMPdI5JTcJRG41LKl9vJ1fkNnFRPe8kcg0AXePWWLD3u76BwCKLhSaOi9ZShRj3igExbnEhADUxFy4BMSt08Ct0DamAY0GhSOj_KAr2PRguvPEGHr4vw_hXeqpQ", "width": 2048}], "place_id": "ChIJ21q2mb6w3IARx7Oexs8DrTI", "rating": 4.4, "reference": "CmRbAAAArcTfTN-8mvCLUj0mGjUjQ9xgHwgI66gKfRJZiQFcTVSJLtCGoo5NRhkvjPsoSUFPxlv8l3y9bID5-cCUcMiHqkyo_yqX_9yFpPH71bnwUuVL7S5dMJfEwTVOCgeTzXEuEhDqR9y-QnNHDKZclIm32WeZGhRXiqFbic3UQiRCU2c31jk_D1e6Vw", "types": ["movie_theater", "electronics_store", "home_goods_store", "store", "point_of_interest", "establishment"]}, "Lake Hemet": {"formatted_address": "California 92561, USA", "geometry": {"location": {"lat": 33.6670507, "lng": -116.6892323}, "viewport": {"northeast": {"lat": 33.6703881, "lng": -116.679158}, "southwest": {"lat": 33.6612866, "lng": -116.7079754}}}, "icon": "https://maps.gstatic.com/mapfiles/place_api/icons/geocode-71.png", "id": "c2c207958c676b9b6c720a876960e8be3727b77a", "name": "Lake Hemet", "photos": [{"height": 2340, "html_attributions": ["<a href=\"https://maps.google.com/maps/contrib/105153164830799372673/photos\">Michele Finn</a>"], "photo_reference": "CmRaAAAAb0AZsyl-9q1vBkBKs49WlNanv7vujdMsS-iqEyhLVBSfPD1elKd0Iw3xva7x8BAbRiNrMvhnEURhxb_SRwxegaLxt2eaUL7S5-tNjVxXmBbl40KzgbvioWqKoQQmXYgOEhAWP2Vzkk6Ka9c5hdy4Wh3zGhRyqYym_H79x_xtXBsS4-ERGJEFtA", "width": 4160}], "place_id": "ChIJDcCSoK8O24AR-zV6GDMjvdA", "rating": 4.4, "reference": "CmRbAAAAiYPRRUnencfhMgjdHFkvN1eJbjPXMJ3nrrvBthno0vqXJctGwcg0crLiWJVBYGVv-Yv2eAKlU8da3zEt4t7BDe8ihO8IpEy-XIKuto7IiDMdm2RV06xEANAqICd-Jw3XEhDsSJBdl-L1p05kUhk9abOiGhSzEp_MmgVklDMtuPfMepNhi_2ZEw", "types": ["natural_feature", "establishment"]}, "Riverside Metropolitan Museum": {"formatted_address": "3580 Mission Inn Avenue, Riverside, CA 92501, USA", "geometry": {"location": {"lat": 33.981986, "lng": -117.372495}, "viewport": {"northeast": {"lat": 33.98347117989272, "lng": -117.3710555701073}, "southwest": {"lat": 33.98077152010728, "lng": -117.3737552298928}}}, "icon": "https://maps.gstatic.com/mapfiles/place_api/icons/museum-71.png", "id": "a3f7f6b3c9f1b2da10f2c5ef3dede48de02e7e9d", "name": "Riverside Metropolitan Museum", "opening_hours": {"open_now": false, "weekday_text": []}, "photos": [{"height": 3008, "html_attributions": ["<a href=\"https://maps.google.com/maps/contrib/102945043945434188588/photos\">Christa Lam</a>"], "photo_reference": "CmRaAAAA8_LkA3boCUfa8HFOtmn17Q6eXhD5pGcrjxr8XrpE5xNbE_Z3HZIImjhehmSa8FPsBtjMB2M0Ny3FyrULmtj0giKcUTXOUCXQKnhObivLhCpJAeH7_yb5Wg1D3I7dA4tWEhAZNxZZbtI-oqXZMzCe2-hiGhTbpHoNlcW3R0XBbCwAxzEEqpzRLA", "width": 4512}], "place_id": "ChIJJ328ROWx3IARuo-GDAwtMN0", "rating": 4.4, "reference": "CmRbAAAAcdudqrIClYinOXF3jdx3kg9Y_ZiXDA1DTmcEspbx6XjKyw2W32pndA3nAKcWN5E28TMnP0Y1V8EZbFz4Jx2FF4eK3nt7FwBk8hOEaXb22SZ7X0CdGrnRU0rZfbjn3rppEhCmscKfyllJiopUiHQcy4KDGhRUH5JHcL5Lo6KaVC0skToMHLIKNw", "types": ["museum", "point_of_interest", "establishment"]}, "Castle Park": {"formatted_address": "3500 Polk St, Riverside, CA 92505, USA", "geometry": {"location": {"lat": 33.90284430000001, "lng": -117.4670995}, "viewport": {"northeast": {"lat": 33.90463282989273, "lng": -117.4647775}, "southwest": {"lat": 33.90193317010728, "lng": -117.4678735}}}, "icon": "https://maps.gstatic.com/mapfiles/place_api/icons/generic_business-71.png", "id": "bd2453940008a512664d9981222127a61d4f7eff", "name": "Castle Park", "photos": [{"height": 1152, "html_attributions": ["<a href=\"https://maps.google.com/maps/contrib/104233101449410236472/photos\">Castle Park</a>"], "photo_reference": "CmRaAAAA07euJHWueVgrEasWEzCZBf0fNI7oUNvXoym4cWwhuQmML82iwYNpIq1mO-D8yeNbVzFiKDcWe4yL_elHWFziOiW5rISSEXE7DOPQAOHjfojNk19dqa6tocbDtz2NehCaEhAdH2M_5_1SLpTGUj9RjJ5tGhQUQCXQOrgUiaYVU88WuR_z_X6cQA", "width": 2048}], "place_id": "ChIJyU-a-EW33IARHAJW7773h6Q", "rating": 4, "reference": "CmRbAAAATM-Y4AwXbNeqqamCJ8umiZwdsosHIn_xrlYnrzgl81BSMJs7OJ6NuYkLShxSZxA_Ku6PFDQkZzlPJt2NQiwOdjT4aWxyKCSXZ1_wsbmjUOZ5VSsHn5-JLzXXetmDaBRzEhCqE4npBnO1-lJ31T4tin9ZGhRsygU2ZaSsauJbqONk4fGVM8x8VQ", "types": ["amusement_park", "point_of_interest", "establishment"]}, "Fairmount Park": {"formatted_address": "Reservoir Dr, Philadelphia, PA 19119, USA", "geometry": {"location": {"lat": 39.9881142, "lng": -75.1971204}, "viewport": {"northeast": {"lat": 40.01342030000001, "lng": -75.16706025}, "southwest": {"lat": 39.9519171, "lng": -75.24292645000001}}}, "icon": "https://maps.gstatic.com/mapfiles/place_api/icons/generic_recreational-71.png", "id": "178889325fe3d3633bb25c1eeb33b996d101e69d", "name": "Fairmount Park", "opening_hours": {"open_now": true, "weekday_text": []}, "photos": [{"height": 1836, "html_attributions": ["<a href=\"https://maps.google.com/maps/contrib/101359686222111057427/photos\">Nepjune5</a>"], "photo_reference": "CmRaAAAAwibMa0TIuL7Ck9lp_L3Z_CRo-9BedJzfu_xgLec6jnGxwQs6IFnHwOVIHrAvx5pjyPzeCtHKS3v8q8i23iVWbQ3v9aA3dfo3QmNYGoTN1dNfikMo_UiwfVDHRYUoFnz4EhCeJNlgy7ycb05jdQ_n6VmXGhSFJv8bZ2e0uHw8jzXLysG9eETqfA", "width": 3264}], "place_id": "ChIJUyEPZwO5xokRfaREsFG789k", "rating": 4.6, "reference": "CmRbAAAAbo2XgoXIZwgnUH58jgCtkE3NW1il-qV34YA8frKx3XPP1t65c4Pv6xYQa1-VE_T_zhEwox2UloMAZUR2AuTc1U7RNH8OMQtE2y7yrIcW09u9tpJ15ykeyBDmTFBgJDr7EhC2ljE5nKqma6qfeZOFa3wLGhQdWX2-VsaAHqBimtCIyt6CUEGyNg", "types": ["park", "point_of_interest", "establishment"]}, "Riverside Art Museum": {"formatted_address": "3425 Mission Inn Avenue, Riverside, CA 92501, USA", "geometry": {"location": {"lat": 33.9817846, "lng": -117.370485}, "viewport": {"northeast": {"lat": 33.98298837989272, "lng": -117.3692376201073}, "southwest": {"lat": 33.98028872010727, "lng": -117.3719372798927}}}, "icon": "https://maps.gstatic.com/mapfiles/place_api/icons/museum-71.png", "id": "925baecc6cee5a4ab1e6d63af7b1ee6757e8a9fe", "name": "Riverside Art Museum", "opening_hours": {"open_now": false, "weekday_text": []}, "photos": [{"height": 3036, "html_attributions": ["<a href=\"https://maps.google.com/maps/contrib/111560225634366507832/photos\">Dacy Nottingham</a>"], "photo_reference": "CmRaAAAA_q0UMXVe7GpOh3Rb7DZpx6F5c6ZbpuhK_7OvsvdSP-hqQAlYxPLLpgLB9o6rceNSAdv03lipfSXl_I76MuOZ2Tqz5XuVA_4rGzmzCnj26EqnhuhyatOxsTRN9G2p9FTMEhAKO0IYon7bhi3-6XMe0ZHfGhRAP_XeVzL1lxjnlSOnRNsUlyXRAw", "width": 4048}], "place_id": "ChIJO2yKHeWx3IARC-QH-rxidnQ", "rating": 4.5, "reference": "CmRbAAAAIoj67KrN0dzzno0wKlqAHqUSe6yYCYnSkG6S1mQHvXS-nYlnLIFanKZ0NmHNg_9j1Az_0YaQX7gAIUh27mnv5Apr31pCMAol8rxSB4Vu3RhjFDlvsW2G-buVp0cqIJE8EhCdokiSbJNGYWLYzMyZQXGHGhStp0fdicCZ43_Brr900C3DJlICbQ", "types": ["museum", "point_of_interest", "establishment"]}, "Rubidoux Drive-In": {"formatted_address": "3770 Opal St, Riverside, CA 92509, USA", "geometry": {"location": {"lat": 34.0065865, "lng": -117.423819}, "viewport": {"northeast": {"lat": 34.00802377989272, "lng": -117.4228370201073}, "southwest": {"lat": 34.00532412010728, "lng": -117.4255366798927}}}, "icon": "https://maps.gstatic.com/mapfiles/place_api/icons/movies-71.png", "id": "b46ff431c0d39f98e26d1be393a9a5519cb7daba", "name": "Rubidoux Drive-In Theatre", "photos": [{"height": 1365, "html_attributions": ["<a href=\"https://maps.google.com/maps/contrib/105086151266588124698/photos\">Rubidoux Drive-In Theatre and Swap Meet</a>"], "photo_reference": "CmRaAAAAEvJXlk9RbZV3Hd66zQC2h8xUQmiwH3cCm2tVA0epVRNwvYP3J88AeuwO1Z6C_Krq3rbsbG9o3vGynAwtOpXT4OW14Yv31W96Gv1KlbPqRFkmrpLb4We7ndgAI8s_6g4EEhBXUf1h99-4BCwlslnm9OkDGhSD5Na79i0z9uTtBuFo4OChaZN1eQ", "width": 2048}], "place_id": "ChIJyxlBZrmz3IARP5GUK4lqmX0", "rating": 4.3, "reference": "CmRbAAAAVFo73PqziXMkYDUB6Gt7GtXDRhRT3JQtHM28qp-PGXQo5SfiOedKdeN-PrhCWeJR8iHGgwqSY-L_Mxarv1oOPXM9IQX84XR9fWS_SJxKK-64i4O4L9NSmF57O0_K2Y0hEhATWiUFSkqko9cVNwkOW92XGhSIERExGdsXQ_fQyqNesGghIxCFrA", "types": ["movie_theater", "electronics_store", "home_goods_store", "store", "point_of_interest", "establishment"]}, "Heritage House": {"formatted_address": "5200 CA-1, Little River, CA 95456, USA", "geometry": {"location": {"lat": 39.2423962, "lng": -123.775261}, "viewport": {"northeast": {"lat": 39.24385397989272, "lng": -123.7740737201073}, "southwest": {"lat": 39.24115432010727, "lng": -123.7767733798927}}}, "icon": "https://maps.gstatic.com/mapfiles/place_api/icons/lodging-71.png", "id": "6d09e6d763a6a6ae402837bec64f8fa0adc8c182", "name": "The Heritage House Resort", "photos": [{"height": 435, "html_attributions": ["<a href=\"https://maps.google.com/maps/contrib/108695649361347075836/photos\">The Heritage House Resort</a>"], "photo_reference": "CmRaAAAASuE_UFDSctvJ2Wq6GtCCtH2yaixWk1lJSysEwwnTGrWS5rlC0qYBVnahEPXy49I9fJ_NqUwSB9b6hZtjwQEmbQ1fI6bIBSbboHEGSMkmeOhvhkPlH6XlKA2nmv7afnD7EhCYWXGbOSTZqaY-dZBr2QbUGhRfoZreamR-jMFqmPBcnJ9cuMh3uA", "width": 967}], "place_id": "ChIJ1X4KaOqsgYAR2m8fy-ZFaiY", "rating": 4, "reference": "CmRbAAAAMvNjqFX_DwqCvusmPYysWiP5bKiqSrpr0lQcLo7n2ZlN368G_NINO3QjFfEf25lZFzgMdShiPpTRxS5pMYuNHtv-ak-HfAsZm--WPBkPw4QR-2mqyXvu57laMIpU4iyzEhBfcCugUUIncgxNrdC8A8LUGhTg4QmFS8PkzCS0LqNsbkZ1rey_lg", "types": ["lodging", "point_of_interest", "establishment"]}, "California Museum of Photography": {"formatted_address": "3824 Main St, Riverside, CA 92501, USA", "geometry": {"location": {"lat": 33.981438, "lng": -117.374333}, "viewport": {"northeast": {"lat": 33.98287312989272, "lng": -117.3731620201072}, "southwest": {"lat": 33.98017347010728, "lng": -117.3758616798927}}}, "icon": "https://maps.gstatic.com/mapfiles/place_api/icons/museum-71.png", "id": "c62109a92739eae3d506a864aee8147c0ea3820f", "name": "UCR/California Museum of Photography", "opening_hours": {"open_now": false, "weekday_text": []}, "photos": [{"height": 3008, "html_attributions": ["<a href=\"https://maps.google.com/maps/contrib/102945043945434188588/photos\">Christa Lam</a>"], "photo_reference": "CmRaAAAAZMiJHMiIkBovT-ztDLo-15HojOKktXnlAAaV7FnwPhb_3fRWMp12FUM8oLi8SJ--iMAX1K5hNZseU7BdEahAILACz3EuPkLpEfcp7qbJq1SdO9eNo4SDWwe6W_S-Qpl1EhDQV0wOda2_uQNOFZie3mJbGhRkZ5DpsfRkmgznjCa-GQf4G1Z-NA", "width": 4512}], "place_id": "ChIJ52IV6e-x3IARJfTeC966wCc", "rating": 4.4, "reference": "CmRbAAAANIZZZHbAfxSxwlWG0ylLDCDIUafT30TeO9lXU9BqW_pdFNDNtwnqD7jwG6WrYMzaZkGmxQeGaOALAuJZMnzriMypZa5wAch8Bj8vsT1scQvh001-F049XWRWACVqLveFEhDEexFgBdok3VzTzd0l9Wu3GhT6wVWbsZndDgdcoxdl6sgoMGAhyA", "types": ["museum", "point_of_interest", "establishment"]}, "The Cove Waterpark": {"formatted_address": "4310 Camino Real, Riverside, CA 92509, USA", "geometry": {"location": {"lat": 34.01025449999999, "lng": -117.448541}, "viewport": {"northeast": {"lat": 34.01160432989272, "lng": -117.4471911701073}, "southwest": {"lat": 34.00890467010728, "lng": -117.4498908298928}}}, "icon": "https://maps.gstatic.com/mapfiles/place_api/icons/generic_business-71.png", "id": "704de38f08f1647ea084e137cb6b143b16115fd5", "name": "The Cove Waterpark", "opening_hours": {"weekday_text": []}, "photos": [{"height": 2736, "html_attributions": ["<a href=\"https://maps.google.com/maps/contrib/115928429195868070456/photos\">Cheryl Salazar</a>"], "photo_reference": "CmRaAAAAdLg959CMAWTuBEfyhX-bE1dcmNEml5eNIyoiheNG5Mndax9w9QHxeRXPzZ5pJ8rictFpP8y0tklSnI06QW1UM7_bsiGSJA2LNU-vLaXJGx8BSi2xEOMXhyjpuhBdu69AEhBfyvZN--55kR6L3A1HFoCsGhQyBH7hHsXgu3Iz7FROLv7Iq6nD8g", "width": 3648}], "place_id": "ChIJnSPg-YOz3IARyvfYN7-Ff8I", "rating": 4.1, "reference": "CmRbAAAAWJF9cwuFdHk9GGWpmfBOlCutb3E4uXQvqOzuLvZM0JDqj9ic_tAzJ3TLPseDAEN5EfCiPMVDpm2qjtihQCXepdjgqdMZUDDh7JeFuXkvPRdlF5JWI8F9TBrDJB3WA78JEhDsdIAty3F2iC88mt3dwUKVGhROpUJUN7RDsoL6ON0fNEvkdpcgFQ", "types": ["amusement_park", "point_of_interest", "establishment"]}, "Riverside Convention & Visitors Bureau": {"formatted_address": "3637 5th St, Riverside, CA 92501, USA", "geometry": {"location": {"lat": 33.984857, "lng": -117.3719828}, "viewport": {"northeast": {"lat": 33.98612942989272, "lng": -117.3706856701073}, "southwest": {"lat": 33.98342977010727, "lng": -117.3733853298927}}}, "icon": "https://maps.gstatic.com/mapfiles/place_api/icons/generic_business-71.png", "id": "dafc73a05adb2c240acb2eb03c9eba1c388c34fa", "name": "Riverside Convention Center", "photos": [{"height": 1080, "html_attributions": ["<a href=\"https://maps.google.com/maps/contrib/100457236788804392873/photos\">Keith Hart</a>"], "photo_reference": "CmRZAAAA3h4-vxuSMdROx0cPOV1gxx_yzj_5T8k-byX-LrP4-O8sQUDMI3Ahr7V-eoMEQutyH5-_gpqSuKWNxTg_tJLyVitkezkUCfiDEGLdZwh5sSFHa7Vq1a5jnG1zFvF_i3NbEhBVzOU44fMDb_XKQDvH4EcvGhSp9gtN9kCqX_P_7rH-RRGsWrMvGA", "width": 1920}], "place_id": "ChIJWRzs5vqx3IAR19r8H7NqWNg", "rating": 4.5, "reference": "CmRbAAAAwf0klB9MrAwfYuTvj9C85UkuhTq1rqF_WacyGrAFsYbtj2eLauna3Xuj1wyaNv0yyY08oy1Hhwz-e7LnjnPC4T51BCDAE7Fs119lpUHqfIPxHRvcRETO8x5e5vXtiichEhAYGLSCTvuawBodIO3FF-oKGhTpint1A2j43XvrIwdPmM5BIB_mnA", "types": ["point_of_interest", "establishment"]}, "Jurupa Mountains Discovery Center": {"formatted_address": "7621 Granite Hill Dr, Riverside, CA 92509, USA", "geometry": {"location": {"lat": 34.0155552, "lng": -117.4501328}, "viewport": {"northeast": {"lat": 34.01690502989273, "lng": -117.4487829701073}, "southwest": {"lat": 34.01420537010729, "lng": -117.4514826298927}}}, "icon": "https://maps.gstatic.com/mapfiles/place_api/icons/museum-71.png", "id": "d5153636157cca8daf9b9265d8bd7fd80e54ba52", "name": "Jurupa Mountains Discovery Center", "opening_hours": {"open_now": false, "weekday_text": []}, "photos": [{"height": 2592, "html_attributions": ["<a href=\"https://maps.google.com/maps/contrib/104968991303292164844/photos\">Joey Numbers</a>"], "photo_reference": "CmRaAAAAwiLvBQ7eCjpZrJDSnMfyyriyE3AY11ULiRORh0nlUA2ZlFSnFZIMVQX2DXwQaqd0444Dc8a40bZadK47heBS5mxpYE5GtDE7brvb_P916xvYt4h_4aXVA1lnatl_QbUhEhBklneS4voyAgK0Nv1YTVdbGhQOly8gsA3TI2k_091y6tcI2MqnHw", "width": 4608}], "place_id": "ChIJVQZ2FIKz3IARfWoo-OvFUqQ", "rating": 4.4, "reference": "CmRbAAAAOhqONMchYjUzkgsDU4jE8vROO5_O97gghQs6NP3gGFGSFwYtqUf4JkeNjRR4-F99c0VHrKfJcB6jBCNwAGwQRUMQktcwJ4Pt9Jh1Wz3xF_yYg1Gj31rkKnoY29YrhPwZEhDLlmYfDjiTTqUTMQNor2cfGhSKSC2_AX4-O99f8vOP_8hJHbK4gA", "types": ["museum", "point_of_interest", "establishment"]}, "Center for Social Justice & Civil Liberties": null, "Regency Theater": null, "Mission Galleria": {"formatted_address": "3700 Main St, Riverside, CA 92501, USA", "geometry": {"location": {"lat": 33.982614, "lng": -117.37372}, "viewport": {"northeast": {"lat": 33.98403992989272, "lng": -117.3724916201073}, "southwest": {"lat": 33.98134027010728, "lng": -117.3751912798927}}}, "icon": "https://maps.gstatic.com/mapfiles/place_api/icons/shopping-71.png", "id": "2f9660922748aa2d39b455e0f912695d6ce66bc0", "name": "Mission Galleria Antique Shoppe", "opening_hours": {"open_now": true, "weekday_text": []}, "photos": [{"height": 490, "html_attributions": ["<a href=\"https://maps.google.com/maps/contrib/112296063055414252015/photos\">Mission Galleria Antique Shoppe</a>"], "photo_reference": "CmRaAAAAt4zxw2TqFftQHWqD4mesSGC4gLas82SVkidgBEiCjyaT8U7ECPKxhbu6KTTg_1kkXMn9Cga4PTEqq82ALz_XYVTDnOyoYlJFnzi_DCD1k5FIJqWRcR-C6N46Q88NEMTHEhBzerlsaFbcOEcKDmTeAKsGGhTCc0P_QMYmSGyZe7tI3i9S1L1saQ", "width": 736}], "place_id": "ChIJG_zP_O-x3IARqlyfHMFm4do", "rating": 4.5, "reference": "CmRbAAAAfdacHoAqUNc9WIE6sUBgumlCF_WLX7rhhWW_lvbDxqejTWuxArI8BAv6EcbFKBk-whkK6z_2hRwtb-dmGLbDc0OzIDja4utF-n8f4yGA22rj4ZeV2Y2ZClIIDqqSjOxoEhA99UmTr9YrqxUZztehmNc3GhSzQr7ivDgzQfmaR0lfKK5ibB8ELw", "types": ["cafe", "furniture_store", "home_goods_store", "store", "food", "point_of_interest", "establishment"]}, "Hunter Park": {"formatted_address": "8830 Gurley Rd, Douglasville, GA 30134, USA", "geometry": {"location": {"lat": 33.739702, "lng": -84.77060399999999}, "viewport": {"northeast": {"lat": 33.74113187989273, "lng": -84.76987307010727}, "southwest": {"lat": 33.73843222010728, "lng": -84.7725727298927}}}, "icon": "https://maps.gstatic.com/mapfiles/place_api/icons/generic_recreational-71.png", "id": "915b126f7530e0897139ce364d660186afd6d548", "name": "Hunter Memorial Park", "opening_hours": {"open_now": true, "weekday_text": []}, "photos": [{"height": 2988, "html_attributions": ["<a href=\"https://maps.google.com/maps/contrib/112188848265779384701/photos\">Libra Kahin</a>"], "photo_reference": "CmRaAAAAiJMNmgPgg-_sYstdkYynOBeOsIWYBOqmXsEW3hbWwsmbxH1d8FuiURvRl_t-SL-uGCc7o4HjYSesu-QULo_TGxl7Z0sVMNPxu3qV8EYsPlvKdZVQ-3hv0A2gVEuyeBEhEhBQm-FKEt-oMesPOWoNfhSUGhSzh11o2b9EakyEwQvgZsWAU470VQ", "width": 5312}], "place_id": "ChIJ7-cx7ygm9YgRQL5HVtUXGHI", "rating": 4.5, "reference": "CmRbAAAA9R5_0lYKuLWxa_VJVaYUJ2nOahl3fnY7G0lblcFaBrByNPKHTzY0ecgWQHNRJJB2KLdc1X1G_y0bHcxOHbsgOi89JTb4dEDzJkmHXe8ashEGJZrBElA9L7NWECFcitVOEhA8nSGQBJt1aXDZ1daPYKLWGhS5ihLznN05mTo6Q-k-IB2vciZ1-Q", "types": ["park", "point_of_interest", "establishment"]}, "Pierce Brothers-Crestlawn Mortuary And Memorial Park": {"formatted_address": "11500 Arlington Ave, Riverside, CA 92505, USA", "geometry": {"location": {"lat": 33.9542278, "lng": -117.5170412}, "viewport": {"northeast": {"lat": 33.95584192989272, "lng": -117.5157035201073}, "southwest": {"lat": 33.95314227010728, "lng": -117.5184031798927}}}, "icon": "https://maps.gstatic.com/mapfiles/place_api/icons/generic_business-71.png", "id": "323602fceeed0ae35938de47375f1508d6a308e9", "name": "Pierce Brothers-Crestlawn Mortuary", "photos": [{"height": 1152, "html_attributions": ["<a href=\"https://maps.google.com/maps/contrib/100456694477865921672/photos\">Miguel Anjel Contreras Jauregui</a>"], "photo_reference": "CmRaAAAAlsVDrtszxeu6fXSp_go6fUgQst3thQgyxXj5mnwvCPShP-jfgiMbL0BJjH9mmDrlR7_TQgDmGO90IiDcqLf4iA5ZBIy3QmPmVpgW4My9ZHBB0qrKZ9jnB51jRrifaSVgEhDz-6JXIjve-8K1CwKm52P3GhR-ULZzrKN_1qZRyaLrOlNJPEyDfA", "width": 2048}], "place_id": "ChIJ9fOsPHe23IAR5T-e-AcfmRk", "rating": 4.7, "reference": "CmRbAAAAshNU48X-fRJZLtbAiWSr-w5ThG-znOXu9-UOb-vOntMnkqyAtZganD6cHvxV16wL4iZNIeAHv3ZgEu3O2MzllXxIkLkafLTLoNIwYf5DIvuMsET2MpUtRFqWNNIpuaOJEhAikBllcaZi2f1_7SUMWiX_GhRynPoVN9QuE32sfSO8Ek6SuODiNQ", "types": ["funeral_home", "cemetery", "park", "point_of_interest", "establishment"]}, "Washington Park": {"formatted_address": "4033 Southwest Canyon Road, Portland, OR 97221, USA", "geometry": {"location": {"lat": 45.5126401, "lng": -122.7127361}, "viewport": {"northeast": {"lat": 45.51398992989272, "lng": -122.7113862701073}, "southwest": {"lat": 45.51129027010727, "lng": -122.7140859298927}}}, "icon": "https://maps.gstatic.com/mapfiles/place_api/icons/generic_recreational-71.png", "id": "0d588490225f5b995949ddef32173be384e12386", "name": "Washington Park", "opening_hours": {"open_now": true, "weekday_text": []}, "photos": [{"height": 4000, "html_attributions": ["<a href=\"https://maps.google.com/maps/contrib/113638941396529828604/photos\">Sujit Kautkar</a>"], "photo_reference": "CmRaAAAA8zRjSJPp5xRLIUFthNpghATEK2NhfNWni9IQkcGifk1srV_syti3eQmSSfNyLQ6qNRfavBmwU6t-H5xfAbSd4vTuhwJpNL5H2yuJhX0ymAmjFQ5jjaMq_kRWE_WU6ueKEhAb4G6_Y5zxIPwwDeEOB3V6GhSBvSRvefJ4nPcmVVCZFBRMidiMPw", "width": 6000}], "place_id": "ChIJGfTXCycKlVQRe9loilMSQG4", "rating": 4.6, "reference": "CmRbAAAAV3T9BOAdG1HNvc6JvO9oHdvKie5Rti79REEI7zeovdD_XzIEIbglDGJhrhyJPQPTg-OE081yl4kWt8WokC8CUedNQFXViQbVp3xOLExkVnQsAYGO1ezCt0aGd85H_k7DEhBbBlsiS7soygfRyyhuWnY6GhSejiueVd21c_haQA4FPPLdMghnVA", "types": ["park", "point_of_interest", "establishment"]}, "Donner Memorial State Park and Emigrant Trail Museum": {"formatted_address": "12593 Donner Pass Rd, Truckee, CA 96161, USA", "geometry": {"location": {"lat": 39.3246581, "lng": -120.2328304}, "viewport": {"northeast": {"lat": 39.32604702989273, "lng": -120.2314728701072}, "southwest": {"lat": 39.32334737010728, "lng": -120.2341725298927}}}, "icon": "https://maps.gstatic.com/mapfiles/place_api/icons/museum-71.png", "id": "00418814bd94a300a3a335bd766d5cf6320e9607", "name": "Emigrant Trail Museum", "opening_hours": {"open_now": false, "weekday_text": []}, "photos": [{"height": 1836, "html_attributions": ["<a href=\"https://maps.google.com/maps/contrib/115232470088233663522/photos\">Gus Garcia</a>"], "photo_reference": "CmRaAAAAgxLfK38niOlEnO2o7dPf_O6XWEPThJ1lxOT7EkNrp3l46262QcYbdbBuWs3M-klUh8mUtXpcZ0HqX7phb38SvIvAkd1qQxpQsC4b-BaokIsom9PCh0wA5_flQ-4iLkMOEhAnqdu05MojiW8GxAqFxvxUGhQDhR65nIChNxn4ynUpR0QgSwM3Bw", "width": 3264}], "place_id": "ChIJc1phmRnem4ARGie_chqtQJU", "rating": 4, "reference": "CmRbAAAAXZkcj3fOYrv4-Iw1gryRZMGIzQK7WDaUN8XY1lySblR6v_GUvTieYQnQGIF05T_Z_iSQRPG8eDoXeEM4LfpNqGEa27yvnK2-aZWKF5ugfwagUDkcZfPxJ416xEP_1Rr7EhBmJlBOqb68pl6llI_hx2yjGhSiMdtSa5iHqt1TUpZzqzwg5g6Jjg", "types": ["museum", "point_of_interest", "establishment"]}, "Northstar California": {"formatted_address": "5001 Northstar Dr, Truckee, CA 96161, USA", "geometry": {"location": {"lat": 39.2745678, "lng": -120.1210934}, "viewport": {"northeast": {"lat": 39.27571797989272, "lng": -120.1200848701073}, "southwest": {"lat": 39.27301832010728, "lng": -120.1227845298928}}}, "icon": "https://maps.gstatic.com/mapfiles/place_api/icons/generic_business-71.png", "id": "ebc4263bc008dcd7bfd8ea2f14036e8622059f30", "name": "Northstar California Resort", "photos": [{"height": 1080, "html_attributions": ["<a href=\"https://maps.google.com/maps/contrib/110245134407944176180/photos\">Roman Kiprin</a>"], "photo_reference": "CmRaAAAAgYQrPNZrsDDfwxxE_yD7wC-uf2UhORL1RUsFTvJ1FRQSNO_0rRUD-oFiB_Va_KfZCo3PyDIrRT7m1MozTv5uHUz8mWmqQBuOyD4JSowNjQUj9AEYxcSJKeZK6AwML69kEhC88YWZQNAYVvERbMet9aHEGhSLWZK-SBB1u6wz5EXeF86BcId6WA", "width": 1618}], "place_id": "ChIJG_MAHWlimYARQhbFNZ29CPE", "rating": 4.5, "reference": "CmRbAAAAovVjGGKHGhHkGWcrAHY0um_lbwxFIfB1VL-wbnpMMfk9AH4IfGzRuETHn_4ngaccT6APfpcfgVeF-N_QjysfoIRwolSD5tNOYfH_b0l3DUEM4_VGog-fObDV8V99GqOpEhBRp8xp1huZlbwLV4hiF2zbGhQ1Y4tygZSBnd6CIL5THVnwtlv-Og", "types": ["lodging", "restaurant", "food", "point_of_interest", "establishment"]}, "Historic Downtown Truckee": {"formatted_address": "10065 Donner Pass Rd, Truckee, CA 96161, USA", "geometry": {"location": {"lat": 39.327518, "lng": -120.1854268}, "viewport": {"northeast": {"lat": 39.32898737989272, "lng": -120.1841268701072}, "southwest": {"lat": 39.32628772010727, "lng": -120.1868265298927}}}, "icon": "https://maps.gstatic.com/mapfiles/place_api/icons/generic_business-71.png", "id": "5d3a79a19585672913fc0d52951969216f921d64", "name": "Historic Downtown Truckee", "opening_hours": {"open_now": true, "weekday_text": []}, "photos": [{"height": 2988, "html_attributions": ["<a href=\"https://maps.google.com/maps/contrib/116823789556768102113/photos\">Mark LoGiurato</a>"], "photo_reference": "CmRaAAAA09fYVjFX5f81WllbJJY87AXAIJ_ej4vTZKbxYfWbvmPpVVxss8REO4obzhaqhmwupeswLj9RL474uWhmBMBufAPlDdNbWxcztXh9v6eltBpvTk30yT2b2PDjgjKso6AVEhCRwkH7R9bG6sR3--I6TwTOGhQHlxq9zzLhhme-smOBeo6UgiV2Ow", "width": 5312}], "place_id": "ChIJOZQGksDfm4ARC8_A0WcFkIQ", "rating": 4.4, "reference": "CmRbAAAAfwV6ejZ1g9I1u1Vy3gmrlVxRO7Xcm9-LDDBLy8pYz10Iwzu_UBepGhgm_8kOpqRzbUlHlkPOWO7ocFqXBnCF7HJeFTH_7MVL2gk-0nWRm7AexnJ3tigcU151geTCpVnSEhCHNURsiwnb5Ny4LureNRPPGhQ9_X6kaCo30feJcRmD6siA41Vusw", "types": ["point_of_interest", "establishment"]}, "Boreal Mountain Resort": {"formatted_address": "19749 Boreal Ridge Rd, Soda Springs, CA 95728, USA", "geometry": {"location": {"lat": 39.3364539, "lng": -120.3498347}, "viewport": {"northeast": {"lat": 39.33813857989272, "lng": -120.3487775201073}, "southwest": {"lat": 39.33543892010728, "lng": -120.3514771798927}}}, "icon": "https://maps.gstatic.com/mapfiles/place_api/icons/generic_business-71.png", "id": "3dd2b7aa51a8d8a113ce1905591e122d88cd28b3", "name": "Boreal Mountain California", "opening_hours": {"open_now": true, "weekday_text": []}, "photos": [{"height": 1365, "html_attributions": ["<a href=\"https://maps.google.com/maps/contrib/110782966561319473746/photos\">JC Jackson</a>"], "photo_reference": "CmRaAAAAVU55ohG0MhjA_HVWNHHJccHU8QZHvTVUYHXPj0VXHsL6DxnrTS4G1LLKnk6epP1DtDQihT_FKxAOwdZFFGBsPzZYcgcFCoa5auKLzBsLznoGNkHMOjoGZcSSIpHcenAlEhB-N-CXvMIasOiNqu96wkKJGhR3wCDVFujP_VuKvnskI8JlH5dwvQ", "width": 2048}], "place_id": "ChIJ04R9eIDom4ARO3QdRZT2fwE", "rating": 4.2, "reference": "CmRbAAAASwY5EJD-L0YG8m-BDADESvIaXRYR5sFsB13_8AqLIm6-lJtrlZvHDoVB17XT_dJse5mjOAW7Wx584KPwJC4luzw8uAzzu5k6Uy2hZk1ba2Yot7--ZvMWVSECxXC_pFGuEhAjy5os8W5yMsOnX7HoClzVGhRrR7OIhJbxDBorBa23uJxbBrZe2A", "types": ["lodging", "point_of_interest", "establishment"]}, "Tahoe Donner Downhill Ski Area": {"formatted_address": "11603 Snowpeak Way, Truckee, CA 96161, USA", "geometry": {"location": {"lat": 39.3540617, "lng": -120.2594163}, "viewport": {"northeast": {"lat": 39.35541152989271, "lng": -120.2580664701073}, "southwest": {"lat": 39.35271187010727, "lng": -120.2607661298927}}}, "icon": "https://maps.gstatic.com/mapfiles/place_api/icons/generic_business-71.png", "id": "4aa422fa6dcf9993a1c7589c2b5e2c1a5ca2d77e", "name": "Tahoe Donner Downhill Ski Area", "opening_hours": {"open_now": false, "weekday_text": []}, "photos": [{"height": 1365, "html_attributions": ["<a href=\"https://maps.google.com/maps/contrib/117436322675850320332/photos\">Tahoe Donner Downhill Ski Area</a>"], "photo_reference": "CmRaAAAAdFb5QJPuWFjJiJZ8-pFT2pb0cZAe59tJDzlCCJne_SCNhrlB9M6klwABAOYkM2EMUb2GQKWZzUlvr5on39VKhmK7OM1HUbnQ4rC9k5TaghQ-BDyAjstR0TQnf4oKZogCEhDPg97q_cPLn0mvkUJL5idiGhShmf1xJENfK5ofK6wi2jdQpjB8rg", "width": 2048}], "place_id": "ChIJl3Y6cC7nm4ARfuqsou88sT4", "rating": 4.5, "reference": "CmRbAAAAy3hLWGKLbJWaCVuiYXAj_UpXdia9H-5FrCe9XoJyEbI9hLhafe7CRw-vvVhvCqT56Ql1N0q_BRQPS8rLLRg_eVm3BQDuBqcgVQcS02c-mfTHwdL_oCjZhE8_zudsHBSxEhDn3waJtWG7fSXwE_0-4l9qGhTJT2yqZjiSG8xwaXVijBAur0_TSQ", "types": ["point_of_interest", "establishment"]}, "Old Truckee Jail Museum": {"formatted_address": "10142 Jibboom St, Truckee, CA 96161, USA", "geometry": {"location": {"lat": 39.3280171, "lng": -120.1868379}, "viewport": {"northeast": {"lat": 39.32930967989272, "lng": -120.1854315701073}, "southwest": {"lat": 39.32661002010727, "lng": -120.1881312298927}}}, "icon": "https://maps.gstatic.com/mapfiles/place_api/icons/museum-71.png", "id": "78e22cdb2f45cbd9e4f45f33e5fe6140ff93683a", "name": "Old Jail Museum", "photos": [{"height": 3464, "html_attributions": ["<a href=\"https://maps.google.com/maps/contrib/107654797024981170260/photos\">Steve Schmorleitz</a>"], "photo_reference": "CmRaAAAANr6vvY4R9BDShaTI9x6uKB1mWCwU_VZVf8-cm8LqWl2Uz-0mIucNQREe7WmV3ESKJR_9gVefKtdcxknZ7iA0WaaIoDOZvFS1DTCE6h8hW9yRmm08gWmoVNYhgktgR1yCEhAJDzH9vgG1nzGJtAfdBoBBGhRp5t_1YSEgGIN2ZGb9GlZiToxY5w", "width": 4618}], "place_id": "ChIJD3F0xsDfm4ARaxL0O4oCHUg", "rating": 4, "reference": "CmRbAAAAnhecJ71IfkIK9suLqi02WSj3Wp9ZWt8_ghNyqFiSVo-8BclC41gdNydD2UM4lnprQnFlV_S5e7fym429nJ0e-ZddotVtIfZd-1pCSUr11H32EOe9RkC2Jp4Y8CFkJGTsEhBGk1v_08RFwgYwx1sSNWVAGhS-Zl8QNDtWw9sDrGdpdO1hMWI0WA", "types": ["museum", "point_of_interest", "establishment"]}, "Truckee Railroad Museum": {"formatted_address": "10075 Donner Pass Rd, Truckee, CA 96161, USA", "geometry": {"location": {"lat": 39.3273652, "lng": -120.1859477}, "viewport": {"northeast": {"lat": 39.32884277989272, "lng": -120.1846587201073}, "southwest": {"lat": 39.32614312010728, "lng": -120.1873583798927}}}, "icon": "https://maps.gstatic.com/mapfiles/place_api/icons/museum-71.png", "id": "add0f36a2b9b3f7cd000d4513b5855a2c21656bf", "name": "Truckee Railroad Museum", "opening_hours": {"open_now": false, "weekday_text": []}, "photos": [{"height": 612, "html_attributions": ["<a href=\"https://maps.google.com/maps/contrib/114263342954006860660/photos\">Ralph Keller</a>"], "photo_reference": "CmRaAAAAny24996XU98h2u_UhPCNSSx363q3IJdMLmPDmU3FlZzssv8dq6O0MxUo0ZXPWSgh6Hrcr2vV7vHy6ExK9dn1vrBw9kCCPW5_C5CX5ws8aSQ_8IrsnN8hURFENqUwZClMEhCSRCOQ9JL6qV6OpkLEfZ1YGhTBMgrdlkJkIlqmOW6gZnCsFeQxqQ", "width": 816}], "place_id": "ChIJv8jhkMDfm4AR4vP_kewzaPk", "rating": 3.5, "reference": "CmRbAAAAM_B27XJTCqzTnyzhJ5S22VkF0QhRCuPrGaqjUwknx-D17RVVe3N3zMt6U1t3rZ8gYVkTfXbc36yPYgDsgO4uAK42nmRROqeI-UWSHuXagypZa661HgmYPrWU3Vq2TvJAEhCSjJVC2Rvattfkx7Uecn9NGhSKmsl_ybsNaB2-RhYe0hmczOh-Bw", "types": ["museum", "point_of_interest", "establishment"]}, "KidZone Museum": {"formatted_address": "11711 Donner Pass Rd, Truckee, CA 96161, USA", "geometry": {"location": {"lat": 39.324986, "lng": -120.213979}, "viewport": {"northeast": {"lat": 39.32633582989271, "lng": -120.2126291701072}, "southwest": {"lat": 39.32363617010727, "lng": -120.2153288298927}}}, "icon": "https://maps.gstatic.com/mapfiles/place_api/icons/museum-71.png", "id": "1191f46d63edc971a42ff6a6f6d4c34b35164074", "name": "KidZone Museum", "opening_hours": {"open_now": false, "weekday_text": []}, "photos": [{"height": 2448, "html_attributions": ["<a href=\"https://maps.google.com/maps/contrib/107219676027186700278/photos\">Lee Adams</a>"], "photo_reference": "CmRaAAAAWNhtkBUpMbRf88nS69hzyrXiWyXlHPK1B2UAxD2Iac_imPRoJ0RwwqMc9h4YLMwEiwiI__5s5TQ-uF-LaJ14hDtTaHPdOxTjGYh6T2mPxPeS22uuHqNPUJTutK74gMJhEhC998nI-FXvE1AxdoCiG4iEGhSeuZq5eBqBKc9gqX7tJjIr7jdKJw", "width": 3264}], "place_id": "ChIJ6X0Z4zDem4AR_LCTQVzYDQo", "rating": 4.8, "reference": "CmRbAAAAJoJuKqp8AZ61Itj5kqlvwjhSxpNzhDsbO7eJo1_SFEb-LSuYRNTSTImNZnlxrqLXQ51fmdzkGJosaLw0fWUYGWf6AwacOICAtwqaWnWtJE5uwd8upywo2hTnydM_FC-nEhBIse_ihCQX-I5Ghx31nXhfGhQN3BtapCll7UDlMh1uGcXZA60ftA", "types": ["museum", "point_of_interest", "establishment"]}, "Tahoe Donner Cross Country": {"formatted_address": "15275 Alder Creek Rd, Truckee, CA 96161, USA", "geometry": {"location": {"lat": 39.36339359999999, "lng": -120.2534233}, "viewport": {"northeast": {"lat": 39.36479137989271, "lng": -120.2516932701073}, "southwest": {"lat": 39.36209172010727, "lng": -120.2543929298928}}}, "icon": "https://maps.gstatic.com/mapfiles/place_api/icons/generic_business-71.png", "id": "1c650d0bbcd09d5f10cc9fa3937e5a90126ee015", "name": "Tahoe Donner Cross Country Ski Area", "opening_hours": {"open_now": false, "weekday_text": []}, "photos": [{"height": 1371, "html_attributions": ["<a href=\"https://maps.google.com/maps/contrib/100980107243832619119/photos\">Tahoe Donner Cross Country Ski Center</a>"], "photo_reference": "CmRaAAAA5N_cM9Njh3c69GeqsX_NKPQRZDnp2dKvClCpOPa1XQoJ9Wdi4tsYRt_MgyrWEC4dxAH_3V2ZCbFEawzn6fJetidHeVqxZvXlyKEY7B06pieZkJJ0gartqyU2MSGY7SIpEhBa_MPkmX01sbmjBErk_sdQGhQ1svHN8vm1Oc-aNv9JtdesgjiFUA", "width": 1365}], "place_id": "ChIJ3wlp3Srnm4ARooM7f5FyTdU", "rating": 4.8, "reference": "CmRbAAAA1TAYGMLs-FTMR9XM-_CwhLlsecRuYGdBgnX91YZ9Ir8IkOvknvpNuwLqD3PYPEeW1XW3yVFztRP-VgudlAIuYXs060tTu64hZFnKTQpgwbGF2HQBScYalU2Xd7Z01KdLEhA9E6cn4Mzjcxpk3qscl6yMGhQBg5nfqH6IvIKTD03w7ivKMZ5m3g", "types": ["point_of_interest", "establishment"]}, "Soda Springs Mountain Ski Resort": {"formatted_address": "10244 Soda Springs Rd, Soda Springs, CA 95728, USA", "geometry": {"location": {"lat": 39.3212906, "lng": -120.3801648}, "viewport": {"northeast": {"lat": 39.32248772989271, "lng": -120.3782670201073}, "southwest": {"lat": 39.31978807010726, "lng": -120.3809666798927}}},