attraction,address,rating,types,place_id,lat,lng,reviews,reviews_count
Alcatraz Island,"San Francisco, CA 94133, USA",4.7,"['natural_feature', 'point_of_interest', 'establishment']",ChIJmRyMs_mAhYARpViaf6JEWNE,37.8269775,-122.4229555,,45972
Golden Gate Bridge,"Golden Gate Bridge, San Francisco, CA, USA",4.7,"['point_of_interest', 'establishment']",ChIJw____96GhYARCVVwg5cT7c0,37.8199286,-122.4782551,,41435
AT&T Park,"24 Willie Mays Plaza, San Francisco, CA 94107, USA",4.7,"['stadium', 'point_of_interest', 'establishment']",ChIJ_T25cNd_j4ARehGmHe0pT84,37.7785951,-122.3892698,,6184
San Francisco Bay,"California, USA",4.7,"['natural_feature', 'establishment']",ChIJBwohpl6bj4AREMlJ8U8PlaI,37.6909682,-122.3107517,,6827
Golden Gate Park,"San Francisco, CA, USA",4.7,"['park', 'point_of_interest', 'establishment']",ChIJY_dFYHKHhYARMKc772iLvnE,37.7694208,-122.4862138,,8306
Exploratorium,"Pier 15 The Embarcadero, San Francisco, CA 94111, USA",4.7,"['museum', 'point_of_interest', 'establishment']",ChIJk2vl5NSGhYARwPGvs_ubIws,37.801542,-122.397484,,2986
Palace of Fine Arts Theatre,"3301 Lyon St, San Francisco, CA 94123, USA",4.7,"['point_of_interest', 'establishment']",ChIJRb6WFtWGhYARLN9EOlXR2JI,37.8029577,-122.4491929,,3972
California Academy of Sciences,"55 Music Concourse Dr, San Francisco, CA 94118, USA",4.5,"['aquarium', 'museum', 'point_of_interest', 'establishment']",ChIJIUT7rEOHhYARucp3wM-HhBs,37.7698646,-122.4660947,,5228
Walt Disney Family Museum,"104 Montgomery St, San Francisco, CA 94129, USA",4.6,"['museum', 'point_of_interest', 'establishment']",ChIJ5f7ZKtiGhYAR9WaYFS6bH1U,37.80145479999999,-122.4586558,,2386
Cable Car Museum,"1201 Mason St, San Francisco, CA 94108, USA",4.6,"['museum', 'point_of_interest', 'establishment']",ChIJX1oMlvKAhYARNZquwetszd8,37.7947043,-122.4117199,,3200
Ferry Building Marketplace,"One Ferry Building, San Francisco, CA 94111, USA",4.5,"['point_of_interest', 'establishment']",ChIJWTGPjmaAhYARxz6l1hOj92w,37.7954662,-122.3936545,,5958
Asian Art Museum,"200 Larkin St, San Francisco, CA 94102, USA",4.5,"['museum', 'point_of_interest', 'establishment']",ChIJkQQVTZqAhYARHxPt2iJkm1Q,37.7801637,-122.4161985,,1369
Lombard Street,"San Francisco, CA, USA",0.0,['route'],ChIJl62Bq92AhYARrLLC3ZcLL8Q,37.8010834,-122.4267887,,13461
Pier 39,"Beach St & The Embarcadero, San Francisco, CA 94133, USA",4.5,"['shopping_mall', 'premise', 'point_of_interest', 'establishment']",ChIJHSGzi_yAhYARnrPmDWAx9ro,37.80867300000001,-122.409821,,16927
Legion of Honor,"100 34th Ave, San Francisco, CA 94121, USA",4.6,"['museum', 'point_of_interest', 'establishment']",ChIJabri1qyHhYARLE0Vd4zY_7k,37.7844661,-122.5008419,,1801
Musee Mecanique,"45 Sausalito - San Francisco Pier 41, San Francisco, CA 94133, USA",4.6,"['museum', 'electronics_store', 'home_goods_store', 'store', 'point_of_interest', 'establishment']",ChIJCQAzVOKAhYARuOpiALmomu0,37.8093405,-122.4160609,,2406
San Francisco Museum of Modern Art (SFMOMA),"151 3rd St, San Francisco, CA 94103, USA",4.7,"['art_gallery', 'museum', 'point_of_interest', 'establishment']",ChIJ53I1Yn2AhYAR_Vl1vNygfMg,37.7857182,-122.4010508,,1497
Presidio of San Francisco,"San Francisco, CA, USA",0.0,"['neighborhood', 'political']",ChIJmxVaCN-GhYARYH--_Fayr7Q,37.7988737,-122.4661937,,1500
de Young Museum,"50 Hagiwara Tea Garden Dr, San Francisco, CA 94118, USA",4.5,"['museum', 'point_of_interest', 'establishment']",ChIJI7NivpmAhYARSuRPlbbn_2w,37.771469,-122.4686755,,1850
Fort Point National Historic Site,"Long Ave & Marine Dr, San Francisco, CA 94129, USA",4.7,"['point_of_interest', 'establishment']",ChIJ_fRRLeqGhYAROWsCl5027X8,37.8106185,-122.4770527,,891
Coit Tower,"1 Telegraph Hill Blvd, San Francisco, CA 94133, USA",4.4,"['point_of_interest', 'establishment']",ChIJAQAAQIyAhYARRN3yIQG4hd4,37.8023949,-122.4058222,,3929
Baker Beach,"San Francisco, CA, USA",4.7,"['natural_feature', 'establishment']",ChIJp_hAi_yGhYARGdXAfU1rPYs,37.7935724,-122.483638,,732
Fisherman's Wharf,"San Francisco, CA, USA",0.0,"['neighborhood', 'political']",ChIJueOuefqAhYARapAU-YtbztA,37.8079996,-122.4177434,,15234
Angel Island State Park,"Tiburon, CA 94920, USA",4.1,"['natural_feature', 'establishment']",ChIJ1Rtu3uyDhYARYkTv738oYhk,37.860909,-122.4325682,,825
Crissy Field,"San Francisco, CA 94129, USA",4.6,"['park', 'point_of_interest', 'establishment']",ChIJVbMlhdyGhYARADaqASKRFVs,37.8040257,-122.4650165,,1262
Golden Gate Promenade,"San Francisco, CA 94129, USA",0.0,['route'],ChIJJ8mfhtqGhYARoWJCNTeTcWk,37.8050136,-122.4584122,,491
Grace Cathedral,"1100 California St, San Francisco, CA 94108, USA",4.5,"['church', 'place_of_worship', 'point_of_interest', 'establishment']",ChIJg2Kun5KAhYARg0g3AF1jbQQ,37.7918581,-122.4134328,,1069
San Francisco City Hall,"1 Dr Carlton B Goodlett Pl, San Francisco, CA 94102, USA",4.4,"['city_hall', 'local_government_office', 'point_of_interest', 'establishment']",ChIJY-bqepmAhYARSk9Xg_9tcLI,37.7792597,-122.4192646,,800
Filbert Steps,"San Francisco, CA, USA",0.0,['route'],ChIJX1vwTt2AhYARc7eF3hUwPrM,37.7995077,-122.4241083,,456
San Francisco Botanical Garden,"1199 9th Ave, San Francisco, CA 94122, USA",4.7,"['museum', 'park', 'point_of_interest', 'establishment']",ChIJW5w2V2iHhYARQoOl_ZsQlOg,37.7671764,-122.467496,,718
Japanese Tea Garden,"75 Hagiwara Tea Garden Dr, San Francisco, CA CA 94118, USA",4.3,"['park', 'point_of_interest', 'establishment']",ChIJhVvouY-AhYARt6oYQBabsr8,37.7700914,-122.470436,,2925
San Francisco Bay Bridge,"San Francisco – Oakland Bay Bridge, San Francisco, CA, USA",4.4,"['point_of_interest', 'establishment']",ChIJ8yqBQBOAhYARU-WeAqu8_K4,37.7982799,-122.3778182,,1573
16 Avenue Tiled Steps,"16th Ave, San Francisco, CA 94122, USA",4.7,"['point_of_interest', 'establishment']",ChIJZbB4wmGHhYAR7dZMVRkEWz0,37.7562705,-122.4731745,,458
Mission Dolores Park,"Dolores St & 19th St, San Francisco, CA 94114, USA",4.6,"['park', 'point_of_interest', 'establishment']",ChIJp3CqeRd-j4ARYI0i8e_kGKY,37.7596168,-122.4269038,,644
San Francisco Maritime National Historical Park,"San Francisco, CA 94109, USA",4.5,"['park', 'point_of_interest', 'establishment']",ChIJ7bPtqOGAhYARlc1YRlOfGrc,37.80774299999999,-122.42415,,550
Ghirardelli Square,"900 North Point St, San Francisco, CA 94109, USA",4.4,"['shopping_mall', 'point_of_interest', 'establishment']",ChIJvXl2weCAhYARjSxnhzrBfNc,37.8058763,-122.4229502,,3005
USS Pampanito,"#11 B Sausalito - San Francisco Pier 41, San Francisco, CA 94133, USA",4.4,"['museum', 'point_of_interest', 'establishment']",ChIJ60RjV-KAhYARZTyNwVT1AWo,37.8099558,-122.4164365,,644
Ferry Plaza Farmer's Market,"One Ferry Building, #50, San Francisco, CA 94111, USA",4.6,"['point_of_interest', 'establishment']",ChIJgT8Lk2aAhYARoNqiP9oBzbw,37.795581,-122.393411,,428
The Embarcadero,"San Francisco, CA, USA",0.0,"['neighborhood', 'political']",ChIJrUM2mWaAhYARfx6a1ZmDF3c,37.7992627,-122.3976732,,823
The Castro,"San Francisco, CA, USA",0.0,"['neighborhood', 'political']",ChIJndQGNht-j4ARiXwy1QZmpsk,37.7609082,-122.4350043,,823
Alamo Square,"San Francisco, CA, USA",0.0,"['neighborhood', 'political']",ChIJudgZRaWAhYARSP5xZKXpvV8,37.7774994,-122.433252,,1172
Powell and Market Cable Car Turnaround,"Powell St, San Francisco, CA 94102, USA",4.4,"['point_of_interest', 'establishment']",ChIJjS3A-oWAhYAR4IAKef6Uq28,37.7847198,-122.4076676,,846
Haight-Ashbury,"San Francisco, CA 94117, USA",0.0,"['neighborhood', 'political']",ChIJX_Qyn6yAhYARSAqN56vATTI,37.7692204,-122.4481393,,1198
Union Square,"Management Suite, 12 First Level Mall, Union Square, Guild Square, Aberdeen AB11 5RG, United Kingdom",4.2,"['shopping_mall', 'point_of_interest', 'establishment']",ChIJs578jzsOhEgRI6hasjzU23M,57.1427616,-2.0961604,,1823
Sutro Baths,"1004 Point Lobos Ave, San Francisco, CA 94121, USA",4.6,"['point_of_interest', 'establishment']",ChIJszBPbLWHhYARfrlLxEb3GuA,37.7804369,-122.5136935,,342
Westfield San Francisco Centre,"865 Market St, San Francisco, CA 94103, USA",4.3,"['shopping_mall', 'shoe_store', 'movie_theater', 'department_store', 'clothing_store', 'electronics_store', 'home_goods_store', 'store', 'restaurant', 'food', 'point_of_interest', 'establishment']",ChIJ6zMe3oWAhYARaZ33Z1BAMRo,37.7841179,-122.4064352,,513
Painted Ladies,"Steiner St & Hayes St, San Francisco, CA 94117, USA",4.3,"['point_of_interest', 'establishment']",ChIJuX92JKWAhYARxVmeb8DQIYQ,37.7762593,-122.432758,,1326
SS Jeremiah O'Brien,"Pier 45, Fisherman's Wharf, San Francisco, CA 94133, USA",4.6,"['museum', 'point_of_interest', 'establishment']",ChIJR3tgUOKAhYARqS7NZ7xDM44,37.8110638,-122.4181442,,330
San Francisco Zoo,"Sloat Blvd & Great Hwy, San Francisco, CA 94132, USA",4.4,"['zoo', 'point_of_interest', 'establishment']",ChIJjaIC83F9j4AR1z3B225I_XU,37.7331299,-122.5051593,,713
Cliff House,"1090 Point Lobos Ave, San Francisco, CA 94121, USA",4.2,"['restaurant', 'food', 'point_of_interest', 'establishment']",ChIJ7dtznbWHhYAR81fEwzi58F4,37.7784764,-122.513963,,390
Madame Tussauds San Francisco,"145 Jefferson St #600, San Francisco, CA 94133, USA",4.2,"['travel_agency', 'museum', 'store', 'point_of_interest', 'establishment']",ChIJy3Ksp-OAhYARthoGyFztDtA,37.8082255,-122.4148634,,431
Little Italy,"189 Grand St, New York, NY 10013, USA",4.4,"['restaurant', 'food', 'point_of_interest', 'establishment']",ChIJIa98TIhZwokRCZnMKhWT5hs,40.7192011,-73.9974897,,311
Mission Dolores,"3321 16th St, San Francisco, CA 94114, USA",4.4,"['place_of_worship', 'point_of_interest', 'establishment']",ChIJFcynIBl-j4ARhkCe4XekDDs,37.7643873,-122.4268969,,251
Aquarium of the Bay,"Pier 39 The Embarcadero & Beach St, San Francisco, CA 94133, USA",4.0,"['aquarium', 'point_of_interest', 'establishment']",ChIJr6OmefyAhYAR-h8_vW9p5GQ,37.8087247,-122.4093074,,1373
Barebottle Brewing Company,"1525 Cortland Ave, San Francisco, CA 94110, USA",4.7,"['bar', 'restaurant', 'food', 'point_of_interest', 'establishment']",ChIJH5jJ8VZ-j4ARja23tGUOAzE,37.740085,-122.409003,,70
Yerba Buena Gardens,"750 Howard St, San Francisco, CA 94103, USA",4.5,"['park', 'point_of_interest', 'establishment']",ChIJCUsDnIeAhYARWCBpPTrHJpQ,37.7850153,-122.4023464,,256
Ocean Beach,"Carrer des Molí, 12-14, 07820 Sant Antoni de Portmany, Illes Balears, Spain",4.3,"['point_of_interest', 'establishment']",ChIJY0JededJmRIRVVoeTwERzwI,38.9717844,1.3065043,,339
Telegraph Hill,"San Francisco, CA, USA",0.0,"['neighborhood', 'political']",ChIJXwXX0faAhYARhK4t5Sq5mYY,37.8013407,-122.4056674,,240
Mission District,"San Francisco, CA, USA",0.0,"['neighborhood', 'political']",ChIJIzOAXzx-j4ARiVHkPQcAWAM,37.7598648,-122.4147977,,438
San Francisco Maritime National Historical Park Ships at Hyde Street Pier,"2905 Hyde St, San Francisco, CA 94109, USA",4.6,"['premise', 'point_of_interest', 'establishment']",ChIJ7XU8qeGAhYARMd5brm8JUSs,37.8077735,-122.4208956,,193
Japantown,"San Francisco, CA 94115, USA",0.0,"['neighborhood', 'political']",ChIJdWS3Kr-AhYARwstzJFP-ghw,37.7854135,-122.429383,,417
Transamerica Pyramid,"600 Montgomery St, San Francisco, CA 94111, USA",4.4,"['premise', 'point_of_interest', 'establishment']",ChIJQ-U7wYqAhYAReKjwcBt6SGU,37.79517750000001,-122.4027787,,261
Treasure Island,"3300 S Las Vegas Blvd, Las Vegas, NV 89109, USA",4.1,"['casino', 'beauty_salon', 'spa', 'clothing_store', 'store', 'lodging', 'point_of_interest', 'establishment']",ChIJswuaqjrEyIARE0cTvGmUiwk,36.1247446,-115.1720809,,217
Fort Funston,"Fort Funston Rd, San Francisco, CA 94132, USA",4.8,"['park', 'point_of_interest', 'establishment']",ChIJazyNlAR9j4ARzE6pzUtJWyw,37.7195436,-122.5028052,,134
St. Mary's Cathedral,"St Marys Rd, Sydney NSW 2000, Australia",4.6,"['church', 'place_of_worship', 'point_of_interest', 'establishment']",ChIJIfH_5hSuEmsR3jZ2qQd0ev4,-33.8711905,151.2133254,,113
Russian Hill,"San Francisco, CA, USA",0.0,"['neighborhood', 'political']",ChIJdZaCGuaAhYARxWlcNTgaA-c,37.8010963,-122.4195558,,142
Sea Lion Center,"203 Pier 39 Concourse, San Francisco, CA 94133, USA",4.7,"['point_of_interest', 'establishment']",ChIJHbTz8PyAhYARhiZjmgRK8AI,37.8106021,-122.4109888,,102
Glide Memorial United Methodist Church,"330 Ellis St, San Francisco, CA 94102, USA",4.4,"['church', 'place_of_worship', 'point_of_interest', 'establishment']",ChIJgyxx6Y-AhYARxePDEkX8ufc,37.785154,-122.4114072,,116
Union Street,"4145 Woodward Ave, Detroit, MI 48201, USA",4.0,"['bar', 'restaurant', 'food', 'point_of_interest', 'establishment']",ChIJnTki1bnSJIgRWcUQ1lKkMrw,42.3511929,-83.0608454,,119
Moscone Center,"747 Howard St, San Francisco, CA 94103, USA",4.4,"['point_of_interest', 'establishment']",ChIJiX4p7X2AhYARbDw5qoA4Vdk,37.7831029,-122.4040588,,171
Marina District,"San Francisco, CA, USA",0.0,"['neighborhood', 'political']",ChIJG6XlmteAhYARMgiT8-gPxQM,37.8036667,-122.4368151,,110
Pier 7,Marina Promenade، Dubai Marina - Dubai - United Arab Emirates,4.5,"['restaurant', 'food', 'point_of_interest', 'establishment']",ChIJuXdpwKpsXz4RGaF38JX41hw,25.0764356,55.139072,,74
Balmy Alley Murals,"50 Balmy St, San Francisco, CA 94110, USA",4.5,"['point_of_interest', 'establishment']",ChIJI_DSmEh-j4ARD3DzVWxfVw8,37.7518028,-122.4124145,,108
Pacific Heights,"San Francisco, CA, USA",0.0,"['neighborhood', 'political']",ChIJRwx1k8WAhYARfPRwDfdu8CY,37.7925153,-122.4382307,,85
The Beat Museum,"540 Broadway, San Francisco, CA 94133, USA",4.2,"['museum', 'book_store', 'home_goods_store', 'store', 'point_of_interest', 'establishment']",ChIJY6qvZfSAhYARE-zWxUt9vxE,37.7980649,-122.4062256,,99
Haight Street,"San Francisco, CA, USA",0.0,['route'],ChIJ6X0u06iAhYARxUKPmuMLwm8,37.7711693,-122.4379324,,158
Seven Stills Brewery and Distillery,"1439 Egbert Ave, San Francisco, CA 94124, USA",4.8,"['bar', 'food', 'point_of_interest', 'establishment']",ChIJUb13xhh_j4ARQuutcRwpdYo,37.7230321,-122.3935644,,31
SFJazz Center,"201 Franklin St, San Francisco, CA 94102, USA",4.8,"['point_of_interest', 'establishment']",ChIJS53IPGGAhYARbUmMvoOAZ88,37.7763257,-122.4214361,,59
Civic Center,"221 Walnut St, Des Moines, IA 50309, USA",4.4,"['point_of_interest', 'establishment']",ChIJ50YDYKqZ7ocRwT9fbTUWdu4,41.5872889,-93.6204483,,191
San Francisco Ballet,"455 Franklin St, San Francisco, CA 94102, USA",4.5,"['point_of_interest', 'establishment']",ChIJnUqw-JiAhYAR0KOYOjdRLs8,37.778516,-122.421895,,131
Contemporary Jewish Museum,"736 Mission St, San Francisco, CA 94103, USA",4.1,"['museum', 'point_of_interest', 'establishment']",ChIJQ4ofxYeAhYARnLQjgdsj76k,37.7860085,-122.4037009,,187
Fort Mason Center,"Schofield Rd, San Francisco, CA 94109, USA",4.6,"['park', 'point_of_interest', 'establishment']",ChIJ8x6MF9-AhYAR3ieCeyoWL5A,37.8063178,-122.4297213,,113
Louise M. Davies Symphony Hall,"201 Van Ness Ave, San Francisco, CA 94102, USA",0.0,['premise'],ChIJLZdoPZmAhYARCANMfz0eq9U,37.7776121,-122.420623,,86
Lyon Street Steps,"San Francisco, CA, USA",0.0,['route'],ChIJURT_WMuAhYARD5c7NqPrekA,37.7879278,-122.445519,,45
Fillmore Street,"San Francisco, CA, USA",0.0,['route'],ChIJL-GMlceAhYARbF2fq57-GWQ,37.7879587,-122.4336699,,93
Washington Square,"9585 SW Washington Square Rd, Portland, OR 97223, USA",4.3,"['shopping_mall', 'clothing_store', 'store', 'restaurant', 'food', 'point_of_interest', 'establishment']",ChIJy9M2zVcMlVQRq1JHJmZthm8,45.4502491,-122.7812183,,109
Children's Creativity Museum,"221 4th St, San Francisco, CA 94103, USA",4.3,"['museum', 'point_of_interest', 'establishment']",ChIJt1SMQ4eAhYAR-8dkWSoHKZI,37.7833172,-122.4021201,,62
Aquatic Park,"80 Bolivar Dr, Berkeley, CA 94710, USA",4.1,"['park', 'point_of_interest', 'establishment']",ChIJicH48-9-hYARI-frQdm5OBs,37.8603258,-122.2992682,,58
Treasure Fest,"1 Avenue of the Palms, San Francisco, CA 94130, USA",4.3,"['point_of_interest', 'establishment']",ChIJWzpq8jCAhYARJABHgNa3wwA,37.816985,-122.370786,,53
Old Cathedral of St. Mary,"660 California St, San Francisco, CA 94108, USA",4.6,"['church', 'place_of_worship', 'point_of_interest', 'establishment']",ChIJl3ZcoouAhYAR1DI821H-LUw,37.7928445,-122.4058109,,67
Stow Lake,"San Francisco, CA 94118, USA",0.0,['route'],ChIJM4l5AmyHhYARrkwVEbnpcMw,37.7688689,-122.4774692,,94
Japan Center,"1737 Post St, San Francisco, CA 94115, USA",4.4,"['shopping_mall', 'point_of_interest', 'establishment']",ChIJBYGM7JGAhYARewX82XkeUWo,37.7851875,-122.4305388,,108
War Memorial Opera House,"301 Van Ness Ave, San Francisco, CA 94109, USA",4.7,"['point_of_interest', 'establishment']",ChIJ7UVGDpmAhYARBt5goMZ-AO0,37.778583,-122.4208774,,82
Golden Gate Park Windmills & Tulips,"1691 John F Kennedy Dr, San Francisco, CA 94121, USA",4.4,"['premise', 'point_of_interest', 'establishment']",ChIJyzM7ebmHhYARKXUIhJF_VOI,37.7704465,-122.5093952,,54
Embarcadero Center,"San Francisco, CA 94111, USA",4.2,"['shopping_mall', 'point_of_interest', 'establishment']",ChIJG4kUEWGAhYARtQwQFYlJCio,37.7944021,-122.3984865,,84
Ripley s Believe It or Not! San Francisco,"175 Jefferson St, San Francisco, CA 94133, USA",3.9,"['museum', 'art_gallery', 'point_of_interest', 'establishment']",ChIJf1rSC-OAhYARTxu37gYw8RU,37.8081571,-122.415464,,212
"Martin Luther King, Jr. Memorial and Waterfall","1964 Independence Ave SW, Washington, DC 20024, USA",4.7,"['park', 'point_of_interest', 'establishment']",ChIJUQb_Dwi3t4kRHsEaPW7Z2tw,38.8862302,-77.0442344,,46
San Francisco Railway Museum,"77 Steuart St, San Francisco, CA 94105, USA",3.9,"['museum', 'store', 'point_of_interest', 'establishment']",ChIJ_f7xMWSAhYARThFhbatwJak,37.7938256,-122.3935533,,97
Grand View Park,"1705 14th Ave, San Francisco, CA 94122, USA",4.8,"['park', 'point_of_interest', 'establishment']",ChIJFS16LmCHhYAR9-5CGavbV2k,37.7564084,-122.4717396,,47
Haas - Lilienthal House,"2007 Franklin St, San Francisco, CA 94109, USA",4.4,"['museum', 'point_of_interest', 'establishment']",ChIJDwAg6cGAhYARwU2X5hTMK_s,37.7932841,-122.424959,,69
Bernal Heights,"San Francisco, CA, USA",0.0,"['neighborhood', 'political']",ChIJSVy9XFx-j4ARMl0msWEEZ7c,37.7411622,-122.4178378,,44
Hayes Valley,"San Francisco, CA 94102, USA",0.0,"['neighborhood', 'political']",ChIJGeftlqGAhYARLx8zNHZgtS8,37.7759073,-122.4245247,,53
San Francisco Maritime National Historical Park's Visitor Center,"499 Jefferson St, San Francisco, CA 94109, USA",4.4,"['travel_agency', 'park', 'point_of_interest', 'establishment']",ChIJQ09tqOGAhYARoAorgs1onFQ,37.8075046,-122.4205546,,40
San Francisco Maritime Museum/Aquatic Park Bathhouse Building,"900 Beach St, San Francisco, CA 94109, USA",4.4,"['museum', 'point_of_interest', 'establishment']",ChIJ7bPtqOGAhYAR0PehdroyYdw,37.8064106,-122.4239026,,79
San Francisco Visitor Information Center,"900 Market St, San Francisco, CA 94102, USA",4.2,"['travel_agency', 'point_of_interest', 'establishment']",ChIJ6-oK6YWAhYAR6hpLtB5vsv4,37.7839968,-122.4086689,,72
Panhandle - Golden Gate Park,"Stanyan St & Fell St, San Francisco, CA 94117, USA",4.4,"['park', 'point_of_interest', 'establishment']",ChIJExp0sFKHhYARJuAx1sqfD0Y,37.7724379,-122.4462853,,54
"Fort Mason, the Great Meadow","Bay St, San Francisco, CA 94123, USA",4.7,"['park', 'point_of_interest', 'establishment']",ChIJK-Cx0NiAhYAReUbTO5cbg18,37.8047706,-122.4304005,,47
Greenwich Steps,"231 Greenwich St, San Francisco, CA 94133, USA",4.8,"['point_of_interest', 'establishment']",ChIJxYI_U_aAhYARZyW-_HnIcTA,37.8030301,-122.4037361,,52
Chinese Historical Society of America,"965 Clay St, San Francisco, CA 94108, USA",4.4,"['museum', 'point_of_interest', 'establishment']",ChIJQS4IxoyAhYARBylg5_xO8TE,37.7938436,-122.4087786,,32
Lafayette Park,"Gough St. & Washington St, San Francisco, CA 94109, USA",4.6,"['park', 'point_of_interest', 'establishment']",ChIJC3O0GsGAhYAR4JK4ut4xPsM,37.7916146,-122.4276133,,36
Hidden Garden Steps,"1515 16th Ave, San Francisco, CA 94122, USA",4.7,"['point_of_interest', 'establishment']",ChIJZ2FsSmGHhYAR5T7IucrXu-Y,37.7562619,-122.4732894,,33
Corona Heights,"San Francisco, CA, USA",0.0,"['neighborhood', 'political']",ChIJXbc6AwF-j4ARbwUHVZolg3U,37.7618119,-122.4431851,,35
San Francisco Art Institute,"800 Chestnut St, San Francisco, CA 94133, USA",4.5,"['university', 'school', 'point_of_interest', 'establishment']",ChIJ5WLIyuWAhYARbzm2ZWKavPY,37.803376,-122.417167,,43
GLBT History Museum,"4127 18th St, San Francisco, CA 94114, USA",4.3,"['museum', 'store', 'point_of_interest', 'establishment']",ChIJiaELzAR-j4ARq0FRvpCYv1Q,37.7606979,-122.4356494,,61
Steinhart Aquarium,"55 Music Concourse Dr, San Francisco, CA 94118, USA",4.8,"['aquarium', 'point_of_interest', 'establishment']",ChIJS25lUkKHhYARU1ws6Nfj8v0,37.7698293,-122.466105,,52
Warfield Theater,"982 Market St, San Francisco, CA 94102, USA",4.3,"['point_of_interest', 'establishment']",ChIJ26vXqYWAhYAR-pHMSmLA0nA,37.7826737,-122.410428,,48
Port of San Francisco,"Pier 1 The Embarcadero, San Francisco, CA 94111, USA",4.9,"['transit_station', 'point_of_interest', 'establishment']",ChIJw3D8L2eAhYARJo9n9osiGDg,37.7968374,-122.3950767,,29
Angel Island Immigration Station,"Tiburon, CA 94920, USA",0.0,['premise'],ChIJQ1oszpWDhYAR-X8w3_N_yo8,37.8693332,-122.4263967,,33
Autodesk Gallery,"1 Market St #200, San Francisco, CA 94105, USA",4.7,"['art_gallery', 'museum', 'point_of_interest', 'establishment']",ChIJtXXOqGaAhYARR2O_cOkkl3s,37.7938786,-122.3948178,,25
San Francisco National Cemetery,"1 Lincoln Blvd, San Francisco, CA 94129, USA",4.5,"['cemetery', 'point_of_interest', 'establishment']",ChIJcf89z96GhYARbVHr9E7SL8U,37.7998167,-122.4644702,,32
Cellarmaker Brewing Company,"1150 Howard St, San Francisco, CA 94103, USA",4.7,"['bar', 'food', 'point_of_interest', 'establishment']",ChIJ-aSP4oKAhYAR9V-3zHp4Qcg,37.777171,-122.41073,,38
Sutro Heights Park,"846 Point Lobos Ave, San Francisco, CA 94121, USA",4.6,"['park', 'point_of_interest', 'establishment']",ChIJ-U68LrSHhYARWgGKnK3Bc14,37.7777942,-122.5111075,,31
Alta Plaza Park,"Jackson St. & Steiner St., San Francisco, CA 94115, USA",4.6,"['park', 'point_of_interest', 'establishment']",ChIJnS-EJM-AhYARYX4zAkEVsP8,37.7911417,-122.4376241,,23
Women's Building Mural,"3543 18th St #8, San Francisco, CA 94110, USA",4.5,"['point_of_interest', 'establishment']",ChIJ6Z-syiJ-j4ARjOHTXwU6LEo,37.7615596,-122.4226539,,35
National AIDS Memorial Grove,"Nancy Pelosi Dr & Bowling Green Dr, San Francisco, CA 94122, USA",4.8,"['park', 'point_of_interest', 'establishment']",ChIJA5OA_YWAhYARhmsqNSUugxY,37.7698852,-122.4607597,,27
Noe Valley,"San Francisco, CA, USA",0.0,"['neighborhood', 'political']",ChIJQxc9KhN-j4AR6gVw6jjSI8Q,37.7502378,-122.4337029,,37
American Conservatory Theater,"30 Grant Ave, San Francisco, CA 94108, USA",4.4,"['point_of_interest', 'establishment']",ChIJhWpBjYiAhYARpu6vqQcCXqA,37.78722800000001,-122.404888,,49
Beach Chalet,"1000 Great Hwy, San Francisco, CA 94121, USA",3.8,"['bar', 'restaurant', 'food', 'point_of_interest', 'establishment']",ChIJ1ShzE7mHhYARnIi1rffKeVc,37.7694643,-122.5100964,,90
Columbus Avenue,"New York, NY, USA",0.0,['route'],ChIJIRjvYrJZwokRqANarwctPvQ,40.76921230000001,-73.9847724,,36
The Fillmore,"1805 Geary Blvd, San Francisco, CA 94115, USA",4.6,"['store', 'point_of_interest', 'establishment']",ChIJO2EGsrmAhYARdDfDm-uVTQQ,37.783926,-122.433072,,42
Museum of the African Diaspora,"685 Mission St, San Francisco, CA 94105, USA",4.1,"['museum', 'point_of_interest', 'establishment']",ChIJrV7u94eAhYARVQN3mR8cQGM,37.786562,-122.401361,,52
Levi's Plaza Park,"1155 Battery St, San Francisco, CA 94111, USA",4.4,"['park', 'point_of_interest', 'establishment']",ChIJ_3UToFiAhYAREy-JQy1gJmk,37.8024468,-122.4020911,,49
SHN Curran Theatre,"1192 Market St, San Francisco, CA 94102, USA",4.5,"['point_of_interest', 'establishment']",ChIJ76ERUo6AhYARr8LiSU5hciU,37.7793632,-122.4146772,,36
Mount Davidson,"San Francisco, CA 94127, USA",4.8,"['natural_feature', 'establishment']",ChIJn2JEDtx9j4AR-xvWeQTWKqY,37.7383333,-122.4533333,,29
The National Shrine of Saint Francis of Assisi,"610 Vallejo St, San Francisco, CA 94133, USA",4.6,"['church', 'place_of_worship', 'point_of_interest', 'establishment']",ChIJk2Ow9vOAhYARnxZIM3WplOU,37.7990061,-122.4077015,,26
Cartoon Art Museum,"781 Beach St, San Francisco, CA 94109, USA",4.0,"['museum', 'point_of_interest', 'establishment']",ChIJWwSkVn2AhYARUQfWE_EJ9ZQ,37.806257,-122.42171,,65
Golden Gate Theatre,"1 Taylor St, San Francisco, CA 94102, USA",4.3,"['point_of_interest', 'establishment']",ChIJVVVVVSh-j4ARzFMW81JHLPg,37.78250500000001,-122.41108,,30
The Wave Organ,"83 Marina Green Dr, San Francisco, CA 94123, USA",4.1,"['point_of_interest', 'establishment']",ChIJ4e_eTCmBhYARKs37VQo82FA,37.8085184,-122.440221,,72
Huntington Park,"California, USA",0.0,"['locality', 'political']",ChIJhcU5VjDJwoARDNU_kUzPP0w,33.9816812,-118.2250725,,25
Presidio Officers’ Club,"50 Moraga Ave, San Francisco, CA 94129, USA",4.7,"['museum', 'restaurant', 'food', 'point_of_interest', 'establishment']",ChIJH1we8CeHhYARDYzY3dZ-21k,37.7976161,-122.4588356,,19
Bill Graham Civic Auditorium,"99 Grove St, San Francisco, CA 94102, USA",4.3,"['point_of_interest', 'establishment']",ChIJNwYP6ZuAhYAR-d1KDyXvWNU,37.77814499999999,-122.4174373,,28
Macondray Lane,"San Francisco, CA 94133, USA",0.0,['route'],ChIJtxFn_O6AhYARHOmRg0P1zi8,37.799053,-122.4164755,,29
Pier 24 Photography Museum,"24 Pier, San Francisco, CA 94105, USA",4.8,"['museum', 'point_of_interest', 'establishment']",ChIJ2SbOUXCAhYARx2YjxOEpjKQ,37.789222,-122.38777,,16
Stonestown Galleria,"3251 20th Ave, San Francisco, CA 94132, USA",4.1,"['shopping_mall', 'point_of_interest', 'establishment']",ChIJQ87gTrp9j4AR60rA_fO2ef0,37.7280313,-122.477088,,32
Sentinel Building,"900 Kearny St, San Francisco, CA 94133, USA",0.0,['premise'],ChIJbeBpw_SAhYARmR13AHfAV1I,37.79648,-122.4050496,,22
San Francisco Bay Trail,"California, USA",0.0,['route'],ChIJVTOeuLuej4ARLYnHn0zG1UU,37.5723159,-122.2793505,,24
Winery Collective,"485 Jefferson St, San Francisco, CA 94109, USA",4.1,"['bar', 'food', 'point_of_interest', 'establishment']",ChIJk3bPp-GAhYAR1HQuTVHBCjo,37.8074587,-122.4203545,,53
Marshall’s Beach,"San Francisco, CA 94129, USA",4.6,"['natural_feature', 'point_of_interest', 'establishment']",ChIJV4g15e-GhYARjj6jFkR4b7Q,37.8016521,-122.4798778,,16
BATS Improv,"2 Fort Mason, San Francisco, CA 94123, USA",4.6,"['point_of_interest', 'establishment']",ChIJRdUWXd6AhYARt_JK5zJos0g,37.8065586,-122.43178,,27
Embarcadero Center Cinema,"1, Embarcadero Center, San Francisco, CA 94111, USA",4.4,"['movie_theater', 'electronics_store', 'home_goods_store', 'store', 'point_of_interest', 'establishment']",ChIJZ76fAGGAhYARByu2fCHHgno,37.7949973,-122.3994346,,15
Local Brewing Co.,"69 Bluxome St, San Francisco, CA 94107, USA",4.5,"['bar', 'restaurant', 'food', 'point_of_interest', 'establishment']",ChIJ18pfNdR_j4ARQLskcwCRBt4,37.7764897,-122.39716,,14
Grateful Dead House,"710 Ashbury St, San Francisco, CA 94117, USA",4.3,"['point_of_interest', 'establishment']",ChIJxwJNqqyAhYARVIpfs7Pgcw4,37.7686921,-122.4464105,,30
California Welcome Center,"2786 Seaglass Way, Oxnard, CA 93036, USA",4.4,"['travel_agency', 'point_of_interest', 'establishment']",ChIJj7HhL_xM6IARWmUEDKyUpBI,34.240072,-119.175272,,29
Yerba Buena Center for the Arts,"701 Mission St, San Francisco, CA 94103, USA",4.4,"['art_gallery', 'point_of_interest', 'establishment']",ChIJiZyN7IeAhYARfJshHJaQckc,37.7856437,-122.4021904,,26
Cow Hollow,"San Francisco, CA 94123, USA",0.0,"['neighborhood', 'political']",ChIJGZkXkNCAhYARU9m5FJMzV5Y,37.798033,-122.4396463,,21
American Bookbinders Museum,"355 Clementina St, San Francisco, CA 94107, USA",4.8,"['museum', 'point_of_interest', 'establishment']",ChIJ6yvxeCV-j4AR0CoeO_roGfs,37.7815434,-122.4028638,,14
SF Armory,"1800 Mission St, San Francisco, CA 94103, USA",4.4,"['point_of_interest', 'establishment']",ChIJOQnmcSF-j4ARqbgcqD6DI_k,37.76781700000001,-122.420575,,37
Crocker Galleria,"50 Post St, San Francisco, CA 94104, USA",4.0,"['shopping_mall', 'point_of_interest', 'establishment']",ChIJ9eKeSoiAhYARJ73ezE7zj-g,37.7895344,-122.4030516,,23
Lotta's Fountain,"Kearny St, San Francisco, CA 94105, USA",4.2,"['park', 'point_of_interest', 'establishment']",ChIJ-zVUQoiAhYAREEBQ1oqGsiE,37.7878949,-122.403354,,21
Stockton Street,"San Francisco, CA, USA",0.0,['route'],ChIJf8yhE_OAhYARv6ZWPwA5qvo,37.7967103,-122.4084529,,20
Notre Dame Des Victoires Church,"566 Bush St, San Francisco, CA 94108, USA",4.6,"['place_of_worship', 'church', 'point_of_interest', 'establishment']",ChIJYfrt_IuAhYARRnnLGtSftFU,37.7907347,-122.4065351,,16
California Historical Society,"678 Mission St, San Francisco, CA 94105, USA",3.7,"['library', 'museum', 'point_of_interest', 'establishment']",ChIJx2NZ-IeAhYARwOHJPBZJJBA,37.786873,-122.401544,,19
Pioneer Monument,"147 Fulton St, San Francisco, CA 94102, USA",3.5,"['point_of_interest', 'establishment']",ChIJCRhXr5uAhYARN0C527WdciM,37.779701,-122.4159417,,28
The Flood Building,"870 Market St, San Francisco, CA 94102, USA",4.4,"['point_of_interest', 'establishment']",ChIJA5OA_YWAhYARVtHF4bj9Byc,37.7850231,-122.4070834,,18
Tank Hill,"Twin Peaks Blvd, San Francisco, CA 94114, USA",4.7,"['park', 'point_of_interest', 'establishment']",ChIJGTDJF_59j4ARUraPc7mH_cI,37.759931,-122.4477144,,14
The Masonic,"1111 California St, San Francisco, CA 94108, USA",5.0,"['movie_theater', 'electronics_store', 'home_goods_store', 'store', 'point_of_interest', 'establishment']",ChIJgW2ng5KAhYARvkYbpumZda0,37.791198,-122.4129823,,19
Pioneer Park,"526 E Main St, Mesa, AZ 85203, USA",4.3,"['park', 'point_of_interest', 'establishment']",ChIJX_JT3c-nK4cRsiRSRuj80kI,33.416972,-111.819674,,16
San Francisco Flower Mart,"640 Brannan St, San Francisco, CA 94107, USA",4.7,"['florist', 'store', 'point_of_interest', 'establishment']",ChIJc2QKH9V_j4ARl1Z769YH_qQ,37.7764539,-122.4003875,,13
Transamerica Redwood Park,"600 Montgomery St, San Francisco, CA 94111, USA",4.4,"['park', 'point_of_interest', 'establishment']",ChIJYXDDl4qAhYAReRkaZFbsSzo,37.7951817,-122.4022158,,10
Press Club,"20 Yerba Buena Ln, San Francisco, CA 94103, USA",4.3,"['bar', 'food', 'point_of_interest', 'establishment']",ChIJ5VjkK4aAhYAR4JdQs3IUjQA,37.7862294,-122.4042354,,18
Speakeasy Ales & Lagers,"1195 Evans Ave, San Francisco, CA 94124, USA",4.4,"['liquor_store', 'bar', 'store', 'food', 'point_of_interest', 'establishment']",ChIJhSMeGA1_j4ARAWPyYgL1YZc,37.7381571,-122.3806562,,18
Harvey Milk Plaza,"Castro St, San Francisco, CA 94114, USA",4.4,"['point_of_interest', 'establishment']",ChIJ88ApFRJ-j4AR9daeRDySBa8,37.7623906,-122.4353401,,23
Don Edwards San Francisco Bay Wildlife Refuge,"2 Marshlands Rd, Fremont, CA 94555, USA",4.5,"['park', 'point_of_interest', 'establishment']",ChIJneSLzs-9j4ARlOjYqHKYGV4,37.49453020000001,-122.0734964,,16
Pacific Union Club,"1000 California St, San Francisco, CA 94108, USA",3.9,"['point_of_interest', 'establishment']",ChIJC5AJa42AhYAR6Bj5sZHPrUY,37.7919357,-122.411353,,13
Morrison Planetarium,"55 Music Concourse Dr, San Francisco, CA 94118, USA",4.7,"['point_of_interest', 'establishment']",ChIJDaXoB0OHhYARNFPhSAHbHQE,37.7699805,-122.4657856,,15
Lake Merced,"Skyline Blvd & Harding Rd, San Francisco, CA 94132, USA",4.5,"['park', 'natural_feature', 'point_of_interest', 'establishment']",ChIJw07uwQd9j4ARllTw5yJevH4,37.7226724,-122.4948384,,15
Jack Early Park,"San Francisco, CA 94133, USA",4.5,"['park', 'point_of_interest', 'establishment']",ChIJD84pEvqAhYARt--bV8TsP-U,37.8048702,-122.4081675,,12
Neptune Society Columbarium,"1 Loraine Ct, San Francisco, CA 94118, USA",4.5,"['funeral_home', 'point_of_interest', 'establishment']",ChIJjUf17DeHhYARtD2a50J0sTQ,37.780615,-122.457077,,13
Old United States Mint,"88 5th St, San Francisco, CA 94103, USA",4.5,"['point_of_interest', 'establishment']",ChIJC1zWgYaAhYAR-9S4SrENu3A,37.78287,-122.407074,,14
The Marsh,"15000 Minnetonka Blvd, Minnetonka, MN 55345, USA",4.5,"['health', 'point_of_interest', 'establishment']",ChIJga9uADAe9ocRQEBQYoDXQhA,44.9380037,-93.4704591,,12
Book Passage,"51 Tamal Vista Blvd, Corte Madera, CA 94925, USA",4.7,"['book_store', 'cafe', 'store', 'food', 'point_of_interest', 'establishment']",ChIJzXkeTWCahYARM67xjXpk52o,37.9339792,-122.5171329,,9
Bluxome Street Winery,"53 Bluxome St, San Francisco, CA 94107, USA",4.5,"['liquor_store', 'bar', 'store', 'food', 'point_of_interest', 'establishment']",ChIJBb5uy9V_j4ARuPPjLFmcQgQ,37.7767288,-122.3968525,,11
Potrero Hill,"San Francisco, CA, USA",0.0,"['neighborhood', 'political']",ChIJ54Bdzsp_j4AR3JVHIMWEYoA,37.7604929,-122.400869,,13
Herbst Theatre,"401 Van Ness Ave, San Francisco, CA 94102, USA",4.6,"['point_of_interest', 'establishment']",ChIJo7RPupmAhYARsSe44RLtl-E,37.7795223,-122.4210204,,7
Queen Wilhelmina Garden,"1690 John F Kennedy Dr, San Francisco, CA 94121, USA",4.1,"['park', 'point_of_interest', 'establishment']",ChIJl9BKfLmHhYARtbJoLQTkHA8,37.7701432,-122.5092699,,19
Vermont Street,"San Francisco, CA, USA",0.0,['route'],ChIJS2BNDzV-j4AR6Dvf3XGDvxA,37.759572,-122.4040259,,14
USS San Francisco Memorial,"San Francisco, CA 94121, USA",4.6,"['park', 'point_of_interest', 'establishment']",ChIJR760Uk2GhYARqZOGfcMz31U,37.782836,-122.5116181,,14
The Color Factory,"575 Sutter St, San Francisco, CA 94102, USA",4.3,"['museum', 'point_of_interest', 'establishment']",ChIJpw_Nh46AhYARWTGQSunbhSA,37.7888163,-122.4097473,,11
Torpedo Wharf,"Long Ave, San Francisco, CA 94129, United States",4.6,"['point_of_interest', 'establishment']",ChIJZXjx9OmGhYARj0H3qc2lKMc,37.8093003,-122.4698552,,10
Maiden Lane,"162 Avenue B, New York, NY 10009, USA",4.4,"['bar', 'point_of_interest', 'establishment']",ChIJn6e7BndZwokRDMI_9jw6xNA,40.72698159999999,-73.9799451,,21
International Art Museum of America,"1023 Market St, San Francisco, CA 94103, USA",3.8,"['art_gallery', 'museum', 'point_of_interest', 'establishment']",ChIJyQNK-4SAhYARO2DZaJleWRc,37.7815002,-122.4105882,,25
Strawberry Hill,"121a St, Surrey, BC V3W, Canada",5.0,"['point_of_interest', 'establishment']",ChIJJ276JGTZhVQRFddikf1irtI,49.1392444,-122.8859734,,8
Tin How Temple,"125 Waverly Pl, San Francisco, CA 94108, USA",4.0,"['place_of_worship', 'point_of_interest', 'establishment']",ChIJ4W9VVouAhYARm7UjFtckzSE,37.7945278,-122.4069686,,26
museum of Ice Cream,"1 Grant Ave, San Francisco, CA 94108, USA",3.9,"['museum', 'point_of_interest', 'establishment']",ChIJQ-C5k4iAhYARptuDnrpWCpM,37.786989,-122.405181,,11
ZK Gallery,"213 Jefferson St, San Francisco, CA 94133, USA",4.2,"['art_gallery', 'point_of_interest', 'establishment']",ChIJJYvBpeOAhYARGG3WGpvC3ZQ,37.8080763,-122.4160154,,8
Sea Cliff,"North Berwick EH39 5PP, UK",4.9,"['natural_feature', 'point_of_interest', 'establishment']",ChIJt-UmsPIGh0gRjZ-X4qd0ft8,56.0519335,-2.6367831,,11
Battery Boutelle,"Fort Winfield Scott, San Francisco, CA 94129, United States",4.8,"['point_of_interest', 'establishment']",ChIJewtT4-6GhYARTrm_DlPmOnE,37.804613,-122.477142,,10
450 Sutter Building,"450 Sutter St, San Francisco, CA 94108, USA",0.0,['premise'],ChIJ7QEJpo6AhYARBSKjIegzx6k,37.7896952,-122.4078356,,9
Ina Coolbrith Park,"Vallejo & Taylor, San Francisco, CA 94133, USA",4.7,"['park', 'point_of_interest', 'establishment']",ChIJdx6kBe6AhYARsPFmpUAvvcY,37.7982629,-122.4134525,,7
Cow Palace,"2600 Geneva Ave, Daly City, CA 94014, USA",4.0,"['point_of_interest', 'establishment']",ChIJ83KJIsZ-j4ARSOWkN1ol9SI,37.7067668,-122.4188007,,26
Rodney Lough Jr. San Francisco Gallery,"1 Jefferson St, San Francisco, CA 94133, USA",5.0,"['art_gallery', 'point_of_interest', 'establishment']",ChIJHSGzi_yAhYARONFWHct3LgY,37.8084783,-122.4123802,,24
St. Mary's Square,"600 St Marys St, Raleigh, NC 27605, USA",4.8,"['real_estate_agency', 'point_of_interest', 'establishment']",ChIJGQFMMGdfrIkRdrYYtCBKeZQ,35.7879498,-78.6505222,,12
Mohandas K. Gandhi (Gandhi Statue),"Parliament Square, Westminster, London SW1P 3JX, UK",4.8,"['point_of_interest', 'establishment']",ChIJQ6ib68QEdkgR7HHdrhp2ODM,51.5006779,-0.1273587,,10
Full House House,"1709 Broderick St, San Francisco, CA 94115, USA",4.3,"['point_of_interest', 'establishment']",ChIJI72SM8qAhYARMv8stLcXM48,37.7863495,-122.4420762,,12
San Francisco Art Exchange,"458 Geary Street, San Francisco, CA 94102, USA",4.4,"['art_gallery', 'museum', 'point_of_interest', 'establishment']",ChIJr81GT46AhYARqWcU4i7jjbc,37.787133,-122.4108954,,7
Yerba Buena Ice Skating & Bowling Center,"750 Folsom St, San Francisco, CA 94107, USA",4.3,"['bowling_alley', 'point_of_interest', 'establishment']",ChIJTx9N3n2AhYARYw-9OmioTfA,37.7829465,-122.400759,,11
Teuscher Chocolates of Switzerland,"900 N Michigan Ave, Chicago, IL 60611, USA",4.5,"['store', 'food', 'point_of_interest', 'establishment']",ChIJtVu_5VPTD4gRWVRLBZ-Ck_I,41.899719,-87.62478340000001,,7
NextArts,"1300 25th St, San Francisco, CA 94107, USA",5.0,"['electronics_store', 'store', 'point_of_interest', 'establishment']",ChIJb5s6OrB_j4ARUlUEx9mlM5k,37.7527552,-122.3920832,,7
San Francisco Zen Center,"300 Page St, San Francisco, CA 94102, USA",4.6,"['place_of_worship', 'point_of_interest', 'establishment']",ChIJ6RZOlqGAhYARaIS0VEUxiOA,37.7737895,-122.4261534,,6
Black Hammer Brewing,"544 Bryant St, San Francisco, CA 94107, USA",4.6,"['art_gallery', 'bar', 'food', 'point_of_interest', 'establishment']",ChIJa4YhPX-AhYARrErOCjyrOBw,37.7807045,-122.3970749,,7
Mision San Francisco de Asis,"3321 16th St, San Francisco, CA 94114, USA",4.4,"['place_of_worship', 'point_of_interest', 'establishment']",ChIJFcynIBl-j4ARhkCe4XekDDs,37.7643873,-122.4268969,,9
Sacramento Street,"San Francisco, CA, USA",0.0,['route'],ChIJm-VK-MCAhYARn5WJVLm_AX0,37.7906014,-122.4281098,,10
Napier Lane,"San Francisco, CA 94133, USA",0.0,['route'],ChIJdyHHW_aAhYARN92iqeRDocU,37.8022987,-122.4038403,,9
Esplanade,"1 Esplanade Dr, Singapore 038981",4.5,"['point_of_interest', 'establishment']",ChIJSeUa7KcZ2jERNVg2CvmlVbk,1.2897934,103.8558166,,9
Museum of Craft and Design,"2569 3rd St, San Francisco, CA 94107, USA",4.1,"['museum', 'store', 'point_of_interest', 'establishment']",ChIJn8w1go6AhYARdfFGEuY4mIc,37.7568398,-122.3877999,,10
Richmond District,"San Francisco, CA 94121, USA",0.0,"['neighborhood', 'political']",ChIJK8HVABGHhYARPbkNZPtKm9E,37.7796734,-122.482907,,8
Holy Virgin Cathedral,"6210 Geary Blvd, San Francisco, CA 94121, USA",4.7,"['church', 'place_of_worship', 'point_of_interest', 'establishment']",ChIJ4xogVg-HhYARrJ-0J3h1OVk,37.7803187,-122.4861766,,12
Custom Made Theatre,"533 Sutter St, San Francisco, CA 94102, USA",4.6,"['point_of_interest', 'establishment']",ChIJh9q4mo6AhYARjDdKeTGhWa8,37.78902490000001,-122.4091439,,5
Timbuk2 Factory Store,"587 Shotwell St, San Francisco, CA 94110, USA",4.6,"['store', 'point_of_interest', 'establishment']",ChIJf3xG1Tt-j4AR6KZ3lH3X_cQ,37.7590263,-122.415633,,5
Victoria Theatre,"138 N Main St, Dayton, OH 45402, USA",4.6,"['point_of_interest', 'establishment']",ChIJV6si4FCBQIgR9F_sk8UJnyg,39.762148,-84.1921394,,9
Billy Goat Hill Park,"2442 Castro St, San Francisco, CA 94131, USA",4.3,"['park', 'point_of_interest', 'establishment']",ChIJKfERrm9-j4AROcxSCHx2gE0,37.741492,-122.4329806,,9
Mechanics' Institute Library and Chess Room,"57 Post St, San Francisco, CA 94104, USA",4.7,"['library', 'school', 'point_of_interest', 'establishment']",ChIJO-j0NYiAhYARqxk-_uyhU3Y,37.7888534,-122.4030107,,6
NFL Shop Pier 39,"2 Beach St, San Francisco, CA 94133, USA",3.8,"['clothing_store', 'store', 'point_of_interest', 'establishment']",ChIJ-X-qBP2AhYARO7AhpMVGuOc,37.809167,-122.4098047,,12
111 Minna Gallery,"111 Minna St, San Francisco, CA 94105, USA",4.3,"['art_gallery', 'point_of_interest', 'establishment']",ChIJ4cyUMX2AhYARi6gMjK91WLU,37.7873438,-122.3994925,,8
Mount Sutro Forest,"San Francisco, CA 94131, USA",4.7,"['park', 'point_of_interest', 'establishment']",ChIJDTzwSPh9j4ARGgKkwhdYqc0,37.7592201,-122.4572304,,5
Marines Memorial Theater,"609 Sutter St, San Francisco, CA 94102, USA",4.5,"['lodging', 'point_of_interest', 'establishment']",ChIJgzCJeY6AhYARSusVUZ3LvYc,37.788844,-122.410475,,7
Laurel Village Shopping Center,"3445 California St, San Francisco, CA 94118, USA",4.7,"['shopping_mall', 'point_of_interest', 'establishment']",ChIJGUEPizOHhYAR8JROykEOF3I,37.7864484,-122.4508198,,7
Macy’s Union Square,"170 O'Farrell St, San Francisco, CA 94102, USA",4.2,"['department_store', 'shoe_store', 'jewelry_store', 'furniture_store', 'clothing_store', 'home_goods_store', 'store', 'point_of_interest', 'establishment']",ChIJ8ZE9JI-AhYAR4bd19NbGWUk,37.7869829,-122.4072103,,7
Franklin Bowles Gallery,"765 Beach St, San Francisco, CA 94109, USA",3.0,"['art_gallery', 'point_of_interest', 'establishment']",ChIJQ2BT4uCAhYARHm5XK8gFR90,37.8064014,-122.421656,,5
TIX Bay Area,"350 Powell St, San Francisco, CA 94102, USA",4.0,"['travel_agency', 'store', 'point_of_interest', 'establishment']",ChIJdTeq3Y6AhYARGTjGlcYceRE,37.7877805,-122.4080538,,15
Glen Canyon Park,"Elk St and Chenery Street, San Francisco, CA 94127, USA",4.7,"['park', 'point_of_interest', 'establishment']",ChIJ9SlCdnZ-j4AR86EzE6c9NY8,37.7415588,-122.4431851,,5
Kezar Stadium,"670 Kezar Dr, San Francisco, CA 94118, USA",4.6,"['stadium', 'point_of_interest', 'establishment']",ChIJldoU6FCHhYAREFqwcwO0fr8,37.7669182,-122.4561008,,7
The Winery SF,"30 Avenue G, San Francisco, CA 94130, USA",4.3,"['bar', 'food', 'point_of_interest', 'establishment']",ChIJL67FWDCAhYAR8V8UTyfASx4,37.81872380000001,-122.366407,,12
Magic Theatre,"Fort Mason Center, 2 Marina Boulevard, Building D, San Francisco, CA 94123, United States",4.8,"['point_of_interest', 'establishment']",ChIJx77KXieBhYAR0Hl0PxsNCX4,37.807047,-122.4307656,,4
Lyon Street,"San Francisco, CA, USA",0.0,['route'],ChIJURT_WMuAhYARD5c7NqPrekA,37.7879278,-122.445519,,4
Admission's Day Statue,"600 Market St, San Francisco, CA 94104, USA",4.0,"['point_of_interest', 'establishment']",ChIJ3Yu8LoiAhYARid_BeDeJv4E,37.789093,-122.4018667,,7
Julius Kahn Playground,"Pacific Ave & Spruce St, San Francisco, CA 94118, USA",4.6,"['park', 'point_of_interest', 'establishment']",ChIJ-5VzQC6HhYARcutXwB4MICM,37.7911316,-122.4543213,,4
Holiday Ice Rink In Union Square,"333 Post St, San Francisco, CA 94102, USA",4.2,"['point_of_interest', 'establishment']",ChIJVVVVFWCAhYARBHjjee9Qigw,37.787938,-122.407506,,7
Nourse Theatre,"275 Hayes St, San Francisco, CA 94117, USA",4.4,"['point_of_interest', 'establishment']",ChIJyQDuJZmAhYARGgj0Bwabbrw,37.7768877,-122.4209496,,5
Holocaust Memorial at California Palace of the Legion of Hono,"100 34th Ave, San Francisco, CA 94121, USA",4.6,"['point_of_interest', 'establishment']",ChIJyzBq6LKHhYAR2eGqbsDgkSQ,37.7856787,-122.4999848,,6
Upper Grant Avenue,"San Francisco, CA, USA",0.0,['route'],ChIJz1gefvSAhYARpmtAf6u2ODY,37.7974867,-122.4069752,,6
Fay Park,"2366 Leavenworth St, San Francisco, CA 94133, USA",4.6,"['park', 'point_of_interest', 'establishment']",ChIJRZR42uWAhYARD6Y7IiIdGEc,37.8029913,-122.4179683,,5
St. Ignatius Church,"650 Parker Ave, San Francisco, CA 94118, USA",4.7,"['church', 'place_of_worship', 'book_store', 'store', 'point_of_interest', 'establishment']",ChIJDYAIUkmHhYAR6p7uXiF66rc,37.7754694,-122.4524706,,3
Presidio Theatre,"2340 Chestnut St, San Francisco, CA 94123, USA",4.1,"['movie_theater', 'electronics_store', 'home_goods_store', 'store', 'point_of_interest', 'establishment']",ChIJe15ZOtSAhYARiatsgofrEEQ,37.800377,-122.441968,,4
Sue Bierman Park,"Washington St & Drumm St, San Francisco, CA 94117, USA",4.2,"['park', 'point_of_interest', 'establishment']",ChIJJdhU9k2HhYARiq91XhmsfX8,37.7961171,-122.396016,,7
Dolores Heights,"San Francisco, CA 94114, USA",0.0,"['neighborhood', 'political']",ChIJofEA2hV-j4ARd9V1pOelgOU,37.7573107,-122.4331655,,5
Museo Italo Americano,"2 Marina Blvd, San Francisco, CA 94123, USA",4.3,"['museum', 'point_of_interest', 'establishment']",ChIJRdUWXd6AhYARLksoyE6b01E,37.80675799999999,-122.431448,,4
Alemany Flea Market,"100 Alemany Blvd, San Francisco, CA 94110, USA",4.4,"['point_of_interest', 'establishment']",ChIJe7krYvh-j4AReOgzWC316nA,37.7360558,-122.4100821,,10
Cole Valley,"San Francisco, CA 94117, USA",0.0,"['neighborhood', 'political']",ChIJh-hc5FSHhYARXOCT7lpcjio,37.7650406,-122.4502301,,6
Yerba Buena Island,"San Francisco, CA, USA",4.3,"['natural_feature', 'establishment']",ChIJ1UHOayOAhYARNTTaD6r2GAg,37.8108709,-122.3668348,,9
Circus Center,"755 Frederick St, San Francisco, CA 94117, USA",4.8,"['point_of_interest', 'establishment']",ChIJRyi3sFCHhYARxm49nWa_TRI,37.7655478,-122.4569743,,3
John McLaren Park,"100 John F Shelley Dr, San Francisco, CA 94134, USA",4.4,"['park', 'point_of_interest', 'establishment']",ChIJ67-gn-5-j4ARcyjzTqE8ZdU,37.719309,-122.4193742,,5
Berggruen Gallery,"10 Hawthorne St, San Francisco, CA 94105, USA",4.2,"['art_gallery', 'point_of_interest', 'establishment']",ChIJYb_WEImAhYARJefVWNCkVsY,37.7857115,-122.3993203,,3
1AM Gallery,"1000 Howard St, San Francisco, CA 94103, USA",4.2,"['art_gallery', 'point_of_interest', 'establishment']",ChIJg6Cu5YOAhYARgIptr9_sqYc,37.779721,-122.4076366,,3
Randall Museum,"199 Museum Way, San Francisco, CA 94114, USA",4.3,"['museum', 'point_of_interest', 'establishment']",ChIJ3dPu2zl-j4ARe9aRil_Yrmk,37.7644489,-122.4381707,,8
Church of St. John Coltrane,"2097 Turk St, San Francisco, CA 94115, USA",4.8,"['church', 'place_of_worship', 'point_of_interest', 'establishment']",ChIJpUU-yruAhYARO51dRgJ5SwA,37.7789175,-122.443375,,4
Mission Bay Conference Center at UCSF,"94143-3008, 1675 Owens St #251, San Francisco, CA 94158, United States",4.4,"['point_of_interest', 'establishment']",ChIJD1Pt_s5_j4ARSAq69ei6CMs,37.7678058,-122.3933172,,5
Moore Road Pier,"Moore Rd, Sausalito, CA 94965, USA",4.5,"['point_of_interest', 'establishment']",ChIJAe30bieEhYARl8nsQ1h2X0w,37.831387,-122.476959,,4
Thread Lounge,"724 Valencia St, San Francisco, CA 94110, USA",3.6,"['furniture_store', 'clothing_store', 'home_goods_store', 'store', 'point_of_interest', 'establishment']",ChIJd2GKLz1-j4ARu_j-S6uXuzE,37.7612343,-122.4217114,,2
500 Capp Street Foundation,"500 Capp St, San Francisco, CA 94110, USA",0.0,"['point_of_interest', 'establishment']",ChIJlYUVA4qAhYAREe5AMPoMwD4,37.759626,-122.409193,,2
Letterform Archive,"1001 Mariposa St #307, San Francisco, CA 94107, USA",5.0,"['library', 'museum', 'point_of_interest', 'establishment']",ChIJ-wTvDcl_j4AR6aTm9O_DUII,37.763769,-122.394038,,2
Artillery Apparel Gallery,"2751 Mission St, San Francisco, CA 94110, USA",4.8,"['art_gallery', 'clothing_store', 'store', 'point_of_interest', 'establishment']",ChIJiX2rVEd-j4ARyZQKQrN2_vM,37.753069,-122.418338,,2
Kiku Imports,"985 E San Carlos Ave, San Carlos, CA 94070, USA",4.9,"['furniture_store', 'home_goods_store', 'store', 'point_of_interest', 'establishment']",ChIJq4cdgJWAhYARobyo6s_INvg,37.5091658,-122.257431,,2
Temple Emanu-El,"1 E 65th St, New York, NY 10065, USA",3.6,"['synagogue', 'place_of_worship', 'point_of_interest', 'establishment']",ChIJR6PDRZlZwokRei_CIaGVmig,40.7679211,-73.969504,,2
Bay Area Ridge Trail,"Fairfield, CA 94534, USA",0.0,['route'],ChIJx_J3NoQRhYARZtMrZOJKczw,38.24025719999999,-122.1426755,,2
Spreckels Lake,"San Francisco, CA 94121, USA",4.4,"['natural_feature', 'establishment']",ChIJ0Rj48KCHhYARq2a8PW4CB70,37.7712207,-122.4943079,,5
Jackson Square,"2 King St W, Hamilton, ON L8P 1A1, Canada",3.6,"['shopping_mall', 'point_of_interest', 'establishment']",ChIJV0VGY4ObLIgRjwYWYLtuwDU,43.2583944,-79.8708346,,8
Golden Gate Park Tennis Center,"Nancy Pelosi Dr & Bowling Green Dr, San Francisco, CA 94117, USA",4.2,"['point_of_interest', 'establishment']",ChIJF_JAG5yAhYAR2A2CBvb-W6g,37.7701878,-122.4589984,,2
Vulcan Steps,"San Francisco, CA 94114, USA",0.0,['route'],ChIJn8OehwF-j4AR_N3JE5kkz-I,37.7635121,-122.4411428,,5
Laughing Monk Brewing,"1439 Egbert Ave a, San Francisco, CA 94124, USA",4.6,"['bar', 'restaurant', 'food', 'point_of_interest', 'establishment']",ChIJUb13xhh_j4ARCo6tyBzSm9s,37.7229323,-122.3933574,,2
Jack Kerouac Alley,"San Francisco, CA 94133, USA",0.0,['route'],ChIJsxuRffSAhYARLpZegQ50Tx0,37.7975376,-122.4066305,,4
Saint Boniface Catholic Church,"120 N Janss St, Anaheim, CA 92805, USA",4.6,"['church', 'place_of_worship', 'point_of_interest', 'establishment']",ChIJXYuzzibW3IARlTEyrR9Nw4Y,33.834315,-117.920941,,3
Cayuga Park,"301 Naglee Ave, San Francisco, CA 94112, USA",4.6,"['park', 'point_of_interest', 'establishment']",ChIJHWNyyyd8j4AReVyUjlIqcxk,37.71425199999999,-122.4494188,,2
Candlestick Point State Recreation Area,"1150 Carroll Ave, San Francisco, CA 94124, USA",4.2,"['park', 'point_of_interest', 'establishment']",ChIJf89D-Dt_j4AREb5FKjLZnYg,37.7136933,-122.3796916,,6
The Regency Ballroom,"1290 Sutter St, San Francisco, CA 94109, USA",4.2,"['point_of_interest', 'establishment']",ChIJH3E4qZWAhYARe4tjSWXQgSQ,37.7877515,-122.4214273,,2
Kite Hill Open Space,"San Francisco, CA 94114, USA",4.7,"['park', 'point_of_interest', 'establishment']",ChIJ8eYJfQZ-j4ARwZ1uy0rpLLc,37.7582816,-122.4415926,,2
Galeria de la Raza,"2857 24th St, San Francisco, CA 94110, USA",4.6,"['art_gallery', 'point_of_interest', 'establishment']",ChIJA58cGUl-j4ARFJQy67ncTo8,37.7527095,-122.4094198,,2
Sanchez Street,"San Francisco, CA, USA",0.0,['route'],ChIJnzY7VBF-j4ARQ--7Vk9ph4A,37.7547697,-122.4299865,,4
San Francisco Water Taxi,"Pier 1 The Embarcadero, San Francisco, CA 94111, USA",4.9,"['transit_station', 'point_of_interest', 'establishment']",ChIJw3D8L2eAhYARJo9n9osiGDg,37.7968374,-122.3950767,,2
Heron's Head Park,"Cargo Way & Jennings Street, San Francisco, CA 94124, USA",4.3,"['park', 'point_of_interest', 'establishment']",ChIJa4eXHW5_j4ARp5FU2c0UZXQ,37.7382002,-122.3731081,,1
Comfort Women Statue - San Francisco,"415 Kearny St, San Francisco, CA 94108, USA",4.9,"['point_of_interest', 'establishment']",ChIJGWYNzIuAhYARMzzMSQShs3Y,37.7918321,-122.4045235,,1
Caroline H. Hume Concert Hall,"50 Oak St, San Francisco, CA 94102, USA",4.0,"['point_of_interest', 'establishment']",ChIJG4Kpw56AhYAR7EmaaaRb4wY,37.775558,-122.4203467,,1
Sydney Walton Square,"San Francisco, CA 94111, USA",4.3,"['park', 'point_of_interest', 'establishment']",ChIJndMZ1l-AhYARyvIc5cEw8gM,37.7974352,-122.399112,,2
Eristavi Family Winery,"1300 Potrero Ave, San Francisco, CA 94110, USA",5.0,"['food', 'point_of_interest', 'establishment']",ChIJVeYLGEx-j4ARzqEswVrmZ5s,37.7510834,-122.4064439,,1
Jefferson Square Park,"950 Gough St, San Francisco, CA 94102, USA",4.1,"['park', 'point_of_interest', 'establishment']",ChIJLa5_C72AhYAR7bHgmgQWrQo,37.7817433,-122.4256958,,2
Congegration Sherith Israel,"2266 California St, San Francisco, CA 94115, USA",4.3,"['synagogue', 'place_of_worship', 'point_of_interest', 'establishment']",ChIJAzWlHMeAhYARo8eNlbYvgWU,37.78947960000001,-122.4318425,,1
San Francisco Columbarium,"1 Loraine Ct, San Francisco, CA 94118, USA",4.5,"['funeral_home', 'point_of_interest', 'establishment']",ChIJjUf17DeHhYARtD2a50J0sTQ,37.780615,-122.457077,,1
SF Art Market,"1023 Market St, San Francisco, CA 94103, USA",3.8,"['art_gallery', 'museum', 'point_of_interest', 'establishment']",ChIJyQNK-4SAhYARO2DZaJleWRc,37.7815002,-122.4105882,,1
Sigmund Stern Recreation Grove,"Sloat Blvd, San Francisco, CA 94132, USA",4.6,"['park', 'point_of_interest', 'establishment']",ChIJ7Xn7t5d9j4ARQRqbedTOces,37.7353053,-122.4762135,,1
Museum of Vision,"655 Beach St, San Francisco, CA 94109, USA",0.0,"['museum', 'point_of_interest', 'establishment']",ChIJQZeIFuGAhYARMhMjtO1mHd0,37.80658,-122.420161,,1
Velvet Da Vinci,"2015 Polk St, San Francisco, CA 94109, USA",4.0,"['art_gallery', 'point_of_interest', 'establishment']",ChIJ84kHh-mAhYARDSAtam5Yn4E,37.7953004,-122.4217976,,1
Boxcar Theatre,"644 Broadway, San Francisco, CA 94133, USA",4.6,"['point_of_interest', 'establishment']",ChIJs0io4bWAhYARy7fyuxymifc,37.7980349,-122.4078997,,1
Grand Central Station Antiques,"360 Bayshore Blvd, San Francisco, CA 94124, USA",4.5,"['home_goods_store', 'store', 'point_of_interest', 'establishment']",ChIJdXiLTyh-j4ARW0rUu_F-SZk,37.7420918,-122.4064142,,1
City Art,"1224 Lincoln St, Columbia, SC 29201, USA",4.5,"['art_gallery', 'store', 'point_of_interest', 'establishment']",ChIJw1SbXSy7-IgRo_h4HQlULpA,34.0008872,-81.03835509999999,,1
Norras Temple,"109 Waverly Pl, San Francisco, CA 94108, USA",5.0,"['church', 'place_of_worship', 'point_of_interest', 'establishment']",ChIJ82j8V4uAhYARUYl20vkb8p4,37.7943863,-122.4070597,,1
Images of the North,"2036 Union St, San Francisco, CA 94123, USA",5.0,"['art_gallery', 'point_of_interest', 'establishment']",ChIJwczX3dqAhYARTETHHMKF_-E,37.7976719,-122.4329539,,1
Catharine Clark Gallery,"248 Utah St, San Francisco, CA 94103, USA",5.0,"['art_gallery', 'point_of_interest', 'establishment']",ChIJm5cvRH2AhYARo3-UDMZiSYc,37.76639,-122.40704,,1
The Mexican Museum,"D, 2 Marina Blvd, San Francisco, CA 94123, USA",3.8,"['museum', 'point_of_interest', 'establishment']",ChIJzQPIbdiAhYARAuQumH2RZN0,37.8069284,-122.4308083,,1
Inspiration Point at the Presidio,"San Francisco, CA 94129, United States",4.6,"['bus_station', 'transit_station', 'point_of_interest', 'establishment']",ChIJ1faFjiWHhYARG-8XaJyEHZU,37.791878,-122.458552,,4
Art for Children at the de Young Museum,"50 Hagiwara Tea Garden Dr, San Francisco, CA 94118, USA",4.5,"['museum', 'point_of_interest', 'establishment']",ChIJI7NivpmAhYARSuRPlbbn_2w,37.771469,-122.4686755,,2
Red Poppy Art House,"2698 Folsom St, San Francisco, CA 94110, USA",4.7,"['point_of_interest', 'establishment']",ChIJqUcWjEd-j4ARlUynJ3_yQrw,37.75421559999999,-122.4145376,,2
Konko Church of San Francisco,"1909 Bush St, San Francisco, CA 94115, USA",4.3,"['church', 'place_of_worship', 'point_of_interest', 'establishment']",ChIJ-4C1Rr-AhYARG0Sh3UpS6cI,37.7873333,-122.42862,,2
Clay Theater,"2221, 2261 Fillmore St, San Francisco, CA 94115, United States",4.5,"['movie_theater', 'electronics_store', 'home_goods_store', 'store', 'point_of_interest', 'establishment']",ChIJ4S_uE8aAhYARlhwHO4Nbrwo,37.7904982,-122.4343491,,2
Presidio Pet Cemetery,"667 McDowell Ave, San Francisco, CA 94129, USA",4.6,"['cemetery', 'point_of_interest', 'establishment']",ChIJW1vAp92GhYARqQOwY32j_p8,37.8025798,-122.4670934,,4
Pacific Heritage Museum of San Francisco,"608 Commercial St, San Francisco, CA 94111, USA",3.5,"['museum', 'point_of_interest', 'establishment']",ChIJW5PI8YqAhYARIR75qbkcYtU,37.7942608,-122.4036982,,3
Mission Creek Park,"451 Berry St, San Francisco, CA 94158, USA",4.2,"['park', 'point_of_interest', 'establishment']",ChIJ1StHh9F_j4ARAk-gLPn330U,37.7708696,-122.3988211,,2
Kong Chow Temple,"855 Stockton St, San Francisco, CA 94108, USA",3.7,"['church', 'place_of_worship', 'point_of_interest', 'establishment']",ChIJuQBqu4yAhYAR-HNEJoH3sZc,37.7939056,-122.4079817,,3
Upper Market,"San Francisco, CA, USA",0.0,"['neighborhood', 'political']",ChIJ78LN_wh-j4AR1Qkd9nWMOpo,37.75432350000001,-122.443555,,3
San Francisco Federal Building,"San Francisco Federal Building, 90 7th St, San Francisco, CA 94103, USA",3.2,"['point_of_interest', 'establishment']",ChIJawzOqISAhYARUySdEKzydUI,37.7789905,-122.4122026,,6
Greater Farallones National Marine Sanctuary - Visitor Center,"991 Marine Dr, San Francisco, CA 94129, USA",4.5,"['point_of_interest', 'establishment']",ChIJEzee0cKGhYARNIjue558ai4,37.8054149,-122.4670712,,3
Sky Terrace,"The Star, 80 Pyrmont St, Pyrmont NSW 2009, Australia",3.7,"['bar', 'point_of_interest', 'establishment']",ChIJe2m77TauEmsRBEbChAU9hAc,-33.8673118,151.1954995,,2
Justin Herman Plaza,"Market St & Steuart St, San Francisco, CA 94105, USA",4.1,"['park', 'point_of_interest', 'establishment']",ChIJWS0hyGaAhYARrci3Bdxh0fI,37.7951195,-122.3952007,,3
Alcazar Theatre,"650 Geary St, San Francisco, CA 94102, USA",4.4,"['point_of_interest', 'establishment']",ChIJpze-wJGAhYARDNc1fbX8BFE,37.7867155,-122.4142004,,1
San Francisco Fire Dept Museum,"655 Presidio Ave, San Francisco, CA 94115, USA",4.0,"['museum', 'point_of_interest', 'establishment']",ChIJFe6ALcuAhYARzveAYJBhgwQ,37.7857943,-122.4466681,,1
San Francisco Camerawork,"1011 Market St, San Francisco, CA 94103, USA",4.8,"['art_gallery', 'point_of_interest', 'establishment']",ChIJF9_nVn2AhYARVMwqS-waQHc,37.7818116,-122.4104478,,1
The San Francisco Mead Company,"1180 Shafter Ave, San Francisco, CA 94124, USA",4.6,"['food', 'point_of_interest', 'establishment']",ChIJGcz4jRV_j4AR6Ok5vZmSX0E,37.726774,-122.382678,,1
Eureka Theatre,"612 F St, Eureka, CA 95501, USA",4.5,"['point_of_interest', 'establishment']",ChIJSymZCmNV0VQR7ENKM1cfWNU,40.8007062,-124.1662572,,1
Russian Hill Park,"Bay St & Larkin St, San Francisco, CA 94109, USA",4.2,"['park', 'point_of_interest', 'establishment']",ChIJU8Jb1-aAhYARMIasGjiYihM,37.8043581,-122.42085,,2
Chloe Gallery,"645 Beach St, San Francisco, CA 94109, USA",4.8,"['art_gallery', 'point_of_interest', 'establishment']",ChIJzwY_a-GAhYAR5tv3WrvMwRc,37.8066255,-122.4200724,,1
Forneris Farms,"15200 Rinaldi St, Mission Hills, CA 91345, USA",4.2,"['grocery_or_supermarket', 'store', 'food', 'point_of_interest', 'establishment']",ChIJoeuOThWQwoARUBJXAs7gKTM,34.2784361,-118.4630867,,1
SOMArts,"934 Brannan St, San Francisco, CA 94103, USA",4.5,"['art_gallery', 'point_of_interest', 'establishment']",ChIJ7WVJBSx-j4ARWDAw_c5GiJg,37.7710595,-122.4065653,,1
"Urban Dharma, Dharma Punx","77 W Walnut St, Asheville, NC 28801, USA",4.4,"['place_of_worship', 'point_of_interest', 'establishment']",ChIJA3mzcFbzWYgRg0q-UjNiItk,35.5963407,-82.5545911,,1
Harry Steps,"San Francisco, CA 94131, USA",0.0,['route'],ChIJVb2kYG9-j4ARO3kLIOrD9mE,37.740008,-122.4313392,,1
Society of California Pioneers,"101 Montgomery St Suite 150, San Francisco, CA 94129, USA",4.2,"['library', 'museum', 'point_of_interest', 'establishment']",ChIJ892Oew73MhURh8R_iv1giMk,37.7999263,-122.4596321,,1
Treasure Island Wines,"995 9th St #201, San Francisco, CA 94130, USA",4.3,"['bar', 'storage', 'food', 'point_of_interest', 'establishment']",ChIJGakoSjOAhYARclWm9Yzkegc,37.8258512,-122.3694719,,5
Esmeralda Slide Park,"&, Winfield St & Esmeralda Ave, San Francisco, CA 94110, United States",4.5,"['park', 'point_of_interest', 'establishment']",ChIJOU3EUFt-j4ARwCY7h7ubF9I,37.7434456,-122.4180013,,1
Upper Fillmore,"San Francisco, CA, USA",0.0,"['neighborhood', 'political']",ChIJkQtwAciAhYARGhc45o-lZHA,37.786997,-122.4368151,,1
San Francisco Performing Arts Library & Museum,"401 Van Ness Ave #402, San Francisco, CA 94102, USA",0.0,"['point_of_interest', 'establishment']",ChIJd2T0uJmAhYARkS2kg_tX8QE,37.7795732,-122.42101,,1
Sutro Tower,"Sutro Tower, 1 La Avanzada St, San Francisco, CA 94131, USA",4.4,"['premise', 'point_of_interest', 'establishment']",ChIJuWrChft9j4ARBQYAnJ2k4jA,37.7552213,-122.4527624,,11
SFFD Fire Museum,"655 Presidio Ave, San Francisco, CA 94115, USA",4.0,"['museum', 'point_of_interest', 'establishment']",ChIJFe6ALcuAhYARzveAYJBhgwQ,37.7857943,-122.4466681,,3
Tenderloin Museum,"398 Eddy St, San Francisco, CA 94102, USA",4.4,"['museum', 'point_of_interest', 'establishment']",ChIJG_lNbZCAhYARgMivyuFP_yQ,37.7838734,-122.4141834,,5
Vaillancourt Fountain,"San Francisco, CA 94105, USA",4.3,"['park', 'point_of_interest', 'establishment']",ChIJzQpfzmaAhYARdEanmhXQpB4,37.7955212,-122.3953556,,5
San Francisco Lesbian Gay Bisexual Transgender (LGBT) Community Center,"989 Market St, San Francisco, CA 94103, USA",4.2,"['point_of_interest', 'establishment']",ChIJ3XvFVn2AhYAR1n553Lgi278,37.7823809,-122.4096963,,8
San Francisco State University,"1600 Holloway Ave, San Francisco, CA 94132, USA",3.9,"['university', 'point_of_interest', 'establishment']",ChIJgeLABbB9j4AR00VqlJ98eqU,37.721897,-122.4782094,,4
Gallery 444,"444 Post St, San Francisco, CA 94102, USA",3.8,"['art_gallery', 'point_of_interest', 'establishment']",ChIJrxVf7Y6AhYARsrfceG3DZTY,37.788284,-122.409201,,2
Pacific Palisades Farmer's Market,"15777 Bowdoin St, Pacific Palisades, CA 90272, USA",4.1,"['point_of_interest', 'establishment']",ChIJI_H4enqjwoAR6BI1IgsItWc,34.0457395,-118.532378,,3
Saturn Steps,"San Francisco, CA 94114, USA",0.0,['route'],ChIJr7XDoAF-j4ARuizNZ0y4nbk,37.7626331,-122.4426357,,1
Museum of Craft and Folk Art,"5814 Wilshire Blvd, Los Angeles, CA 90036, USA",4.4,"['museum', 'store', 'point_of_interest', 'establishment']",ChIJETxa8CK5woARpYBXIBaKi7k,34.062177,-118.3555702,,6
12 Gallagher Lane,"12 Gallagher Ln, San Francisco, CA 94103, USA",0.0,['street_address'],ChIJ9cyNzICAhYARsidm0hHzoSI,37.7817144,-122.403236,,2
Gefen Fine Art,"239 Grant Ave, San Francisco, CA 94108, USA",5.0,"['art_gallery', 'point_of_interest', 'establishment']",ChIJCzyLFYmAhYARme6wGt_J_KE,37.78921589999999,-122.4056525,,0
Romer Young Gallery,"1240 22nd St, San Francisco, CA 94107, USA",4.5,"['art_gallery', 'point_of_interest', 'establishment']",ChIJ9e735bZ_j4AR-5QVFKz6gW8,37.7577813,-122.3936288,,0
Ferment.Drink.Repeat,"2636 San Bruno Ave, San Francisco, CA 94134, USA",4.9,"['store', 'food', 'point_of_interest', 'establishment']",ChIJgVrH2OJ-j4AR2tH5x0EOWJY,37.72826260000001,-122.4041673,,0
Marrow Gallery,"548 Irving St, San Francisco, CA 94122, USA",5.0,"['art_gallery', 'point_of_interest', 'establishment']",ChIJgUOUClyHhYARaj8VtvNtYzA,37.7643166,-122.4637819,,0
Bass and Reiner,"1275 Minnesota St #207, San Francisco, CA 94107, USA",5.0,"['art_gallery', 'point_of_interest', 'establishment']",ChIJXdSpkLp_j4ARqQmLZthUWMc,37.754252,-122.389381,,0
Sequoia Sake Company,"50 Apparel Way, San Francisco, CA 94124, USA",5.0,"['food', 'point_of_interest', 'establishment']",ChIJDaLiFFV-j4ARM8KI5saFzD8,37.740312,-122.403014,,1
Victoria Manalo Draves Park,"16 Sherman St, San Francisco, CA 94103, USA",3.9,"['park', 'point_of_interest', 'establishment']",ChIJMb8k6YGAhYARcSOLWWOsvoI,37.7770921,-122.4060738,,0
McKinley Square,"20th St & Vermont St, San Francisco, CA 94107, USA",4.5,"['park', 'point_of_interest', 'establishment']",ChIJdZA0ojV-j4AR3fv2Vtt5yO8,37.7589868,-122.4044284,,0
3 Fish Studios,"4541 Irving St, San Francisco, CA 94122, USA",5.0,"['art_gallery', 'store', 'point_of_interest', 'establishment']",ChIJzaFLV5aHhYAR2V1JZ0GnOAM,37.7620673,-122.5067638,,0
San Francisco Women Artists Gallery,"647 Irving St, San Francisco, CA 94122, USA",5.0,"['art_gallery', 'point_of_interest', 'establishment']",ChIJvUWEmDOHhYARBEoXOwffpEM,37.7638825,-122.4649974,,0
Vedanta Society of Northern California,"2323 Vallejo St, San Francisco, CA 94123, USA",5.0,"['place_of_worship', 'point_of_interest', 'establishment']",ChIJ0060WMWAhYARU6Cv-wBIo_o,37.794982,-122.435421,,0
James R. Browning United States Courthouse,"95 7th St, San Francisco, CA 94103, USA",3.7,"['library', 'point_of_interest', 'establishment']",ChIJAYMYCWWAhYARjhlzbaxR3Wk,37.7799837,-122.4110413,,0
AlSabeel Noor Al-Islam Mosque,"118 Jones St, San Francisco, CA 94102, USA",4.8,"['mosque', 'place_of_worship', 'point_of_interest', 'establishment']",ChIJw7ksI4WAhYARRBcP31hQzpI,37.7824338,-122.4120526,,0
Art Attack SF,"2358 Market St Ste #1, San Francisco, CA 94114, USA",5.0,"['art_gallery', 'point_of_interest', 'establishment']",ChIJU-uuuxx-j4ARRIitc7ZLYDM,37.7634703,-122.4344871,,0
Gallery 925,"210 Post St #901, San Francisco, CA 94108, USA",4.2,"['jewelry_store', 'home_goods_store', 'store', 'point_of_interest', 'establishment']",ChIJEaT2GImAhYARgeAckz9kPgA,37.7889351,-122.4055804,,0
EXIT Theatre,"156 Eddy St, San Francisco, CA 94102, USA",4.4,"['point_of_interest', 'establishment']",ChIJyfVofoWAhYAR2H65Nkg6A_8,37.784383,-122.4101584,,0
Hua Zang Si,"3134 22nd St, San Francisco, CA 94110, USA",5.0,"['church', 'place_of_worship', 'point_of_interest', 'establishment']",ChIJ0akv3Dh-j4ARMcfALIYW13E,37.75575329999999,-122.4172589,,0
BAPS Shri Swaminarayan Mandir,"105-119 Brentfield Rd, London NW10 8LD, UK",4.6,"['hindu_temple', 'place_of_worship', 'point_of_interest', 'establishment']",ChIJb4TgNZgRdkgRiZnQW5df0XM,51.5475773,-0.2607821,,119
Fouladi Projects,"1803 Market St, San Francisco, CA 94103, USA",0.0,"['art_gallery', 'point_of_interest', 'establishment']",ChIJa4fXCJ6AhYARfQRw5HMMSSA,37.771387,-122.423779,,0
Concourse Exhibition Center,"635 8th St, San Francisco, CA 94103, USA",4.0,"['point_of_interest', 'establishment']",ChIJw1S3ZSx-j4ARRfpHlzLTmEk,37.7712689,-122.4049057,,0
Intersection for the Arts,"901 Mission St #306, San Francisco, CA 94103, USA",5.0,"['point_of_interest', 'establishment']",ChIJjRkkhYaAhYARRAO5l6vbf8M,37.7821498,-122.4065456,,0
Phoenix Gallery,"548 W 28th St, New York, NY 10001, USA",4.0,"['art_gallery', 'point_of_interest', 'establishment']",ChIJsy_13LdZwokRHh8y1G_rwlo,40.7515661,-74.00418719999999,,0
Buddha's Universal Church,"720 Washington St, San Francisco, CA 94108, USA",3.0,"['place_of_worship', 'point_of_interest', 'establishment']",ChIJdUKBNIuAhYARChXkUzoFxDg,37.7954091,-122.4053485,,0
San Francisco African American Historical & Cultural Society,"762 Fulton St, San Francisco, CA 94102, USA",4.7,"['museum', 'art_gallery', 'point_of_interest', 'establishment']",ChIJAW_uUKOAhYAR7sB6TUroFi8,37.778282,-122.429259,,0
Allyne Park,"2609 Gough St, San Francisco, CA 94123, USA",4.2,"['park', 'point_of_interest', 'establishment']",ChIJYT_cJMOAhYARR_9eCJUnJuE,37.7975612,-122.4275556,,0
Meyerovich Gallery,"251 Post St # 400, San Francisco, CA 94108, USA",0.0,"['art_gallery', 'point_of_interest', 'establishment']",ChIJp8JZJImAhYARxipRr9LrRVI,37.788346,-122.406043,,0
Fraenkel Gallery,"49 Geary St Suite 450, San Francisco, CA 94108, USA",4.4,"['art_gallery', 'point_of_interest', 'establishment']",ChIJfe0i-IiAhYAREgqvL4iq1iA,37.787698,-122.404288,,0
USS Midway Museum,"910 N Harbor Dr, San Diego, CA 92101, USA",4.8,"['museum', 'point_of_interest', 'establishment']",ChIJwYBuKqtU2YARslNFQDCJt_s,32.7137398,-117.1751265,,20405
San Diego Zoo,"2920 Zoo Dr, San Diego, CA 92101, USA",4.6,"['zoo', 'point_of_interest', 'establishment']",ChIJyYB_SZVU2YARR-I1Jjf08F0,32.735316,-117.149046,,23149
Balboa Park,"San Diego, CA, USA",4.8,"['park', 'museum', 'point_of_interest', 'establishment']",ChIJA8tw-pZU2YARxPYVsDwL8-0,32.7341479,-117.144553,,10358
La Jolla Cove,"California 92037, USA",4.8,"['natural_feature', 'establishment']",ChIJ6-V2qP4D3IARF8anKDxl_5A,32.8504529,-117.2729344,,10306
Torrey Pines State Natural Reserve,"12600 N Torrey Pines Rd, La Jolla, CA 92037, USA",4.8,"['park', 'point_of_interest', 'establishment']",ChIJa5RVrGcG3IARsS8AQCWntoc,32.9165604,-117.2495749,,3260
Petco Park,"100 Park Blvd, San Diego, CA 92101, USA",4.7,"['stadium', 'point_of_interest', 'establishment']",ChIJ7fMsvKtU2YARXM4yStBv8rU,32.7076563,-117.1569043,,3724
Cabrillo National Monument,"1800 Cabrillo Memorial Dr, San Diego, CA 92106, USA",4.7,"['park', 'point_of_interest', 'establishment']",ChIJf8WHX0Cs3oARjGBkWjMtov4,32.6735426,-117.2425191,,4105
Fort Rosecrans Cemetery,"Cabrillo Memorial Dr, San Diego, CA 92106, USA",4.9,"['cemetery', 'point_of_interest', 'establishment']",ChIJM0CkOw2s3oARBC3Dex5o3tc,32.6886442,-117.245578,,1232
Mt. Soledad National Veterans Memorial,"6905 La Jolla Scenic Dr S, La Jolla, CA 92037, USA",4.8,"['park', 'point_of_interest', 'establishment']",ChIJZ3vqyGoB3IART6lWNyejpJE,32.8398091,-117.2447094,,2001
Sunset Cliffs Natural Park,"Ladera St, San Diego, CA 92107, USA",4.8,"['park', 'point_of_interest', 'establishment']",ChIJA65lSMOr3oARFZHgtdTySeo,32.718002,-117.2548558,,1740
Point Loma,"San Diego, CA, USA",0.0,"['neighborhood', 'political']",ChIJy0CGX3er3oAR690nFk3mX4k,32.70003,-117.2466838,,1681
Coronado Bridge,"Route 75 Coronado, San Diego, CA 92118, USA",4.5,"['point_of_interest', 'establishment']",ChIJBzO8MqtU2YARPM0TlBFXGek,32.6893843,-117.153364,,4939
La Jolla Shores Park,"8300 Camino Del Oro, La Jolla, CA 92037, USA",4.7,"['park', 'point_of_interest', 'establishment']",ChIJOVYGolIB3IARXNhQNGFaCYE,32.8589947,-117.2557447,,2427
Torrey Pines Gliderport,"2800 Torrey Pines Scenic Dr, La Jolla, CA 92037, USA",4.7,"['point_of_interest', 'establishment']",ChIJm7IMCJMG3IAR4HJkqgZPJI8,32.889867,-117.251201,,1188
Mormon Battalion Historic Site,"2510 Juan St, San Diego, CA 92110, USA",4.8,"['travel_agency', 'point_of_interest', 'establishment']",ChIJr3AaK9yq3oAR5gWZgzH17Uw,32.7542245,-117.1942339,,872
Maritime Museum of San Diego,"1492 N Harbor Dr, San Diego, CA 92101, USA",4.6,"['museum', 'point_of_interest', 'establishment']",ChIJW3MFtlKr3oARYkZGRPnweDs,32.7209364,-117.1739915,,1454
Old Point Loma Lighthouse,"1800 Cabrillo Memorial Dr, San Diego, CA 92106, USA",4.7,"['premise', 'point_of_interest', 'establishment']",ChIJW9UmA0Gs3oARuzWLN4OQ4MU,32.671986,-117.2409494,,1284
Pacific Beach,"San Diego, CA, USA",0.0,"['neighborhood', 'political']",ChIJ5Rm-YscB3IARbOcbiMq4vac,32.8024577,-117.2355851,,1006
Windansea Beach,"San Diego, CA 92037, USA",4.8,"['natural_feature', 'establishment']",ChIJgVVa6cID3IARgK2sdPMI6aw,32.8311587,-117.2811488,,478
San Diego Bay Walk,"California, USA",4.8,"['natural_feature', 'establishment']",ChIJ-wrWDNZS2YARqEFBB0ROv8Q,32.6716639,-117.1441227,,731
Old Town San Diego State Historic Park,"4002 Wallace St, San Diego, CA 92110, USA",4.6,"['park', 'point_of_interest', 'establishment']",ChIJe9OrW-eq3oARuXXd8wQMg14,32.754929,-117.1979433,,4807
Mission Beach,"Queensland 4852, Australia",0.0,"['locality', 'political']",ChIJDZKGBLouf2kRMHkgf_HuAAQ,-17.869444,146.106944,,1804
Botanical Building and Lily Pond,"1549 El Prado, San Diego, CA 92101, USA",4.6,"['natural_feature', 'park', 'point_of_interest', 'establishment']",ChIJ6_R6EJZU2YARjlNooLF78lc,32.7324985,-117.1492236,,932
Mission Bay Park,"2688 East Mission Bay Drive, San Diego, CA 92109, USA",4.6,"['park', 'point_of_interest', 'establishment']",ChIJ9dZdfnyq3oARI_cFYz7QSKM,32.7915576,-117.2095748,,489
Seaport Village,"849 W Harbor Dr, San Diego, CA 92101, USA",4.5,"['shopping_mall', 'point_of_interest', 'establishment']",ChIJj6yU_VRT2YARRK_XY0FcTD4,32.7094908,-117.1708757,,3956
Birch Aquarium at Scripps,"2300 Expedition Way, La Jolla, CA 92037, USA",4.4,"['aquarium', 'point_of_interest', 'establishment']",ChIJ-6dQ_bMG3IARqV9Yevu9XLw,32.8658117,-117.2506888,,1597
Old Town San Diego,"San Diego, CA 92110, USA",0.0,"['colloquial_area', 'political']",ChIJaSQ09t2q3oARQJFIQzu_Km0,32.7542167,-117.1969793,,1403
Mission Beach Boardwalk,"1710 W Mission Bay Dr, San Diego, CA 92109, USA",4.6,"['park', 'point_of_interest', 'establishment']",ChIJkzb2hm6q3oARTuRxjVsJxZA,32.7710609,-117.2529183,,572
San Diego Convention Center,"111 W Harbor Dr, San Diego, CA 92101, USA",4.5,"['point_of_interest', 'establishment']",ChIJi13lS1dT2YARpYx0CjdGiFY,32.70713750000001,-117.1624983,,672
La Jolla Caves,"California 92037, USA",4.8,"['natural_feature', 'establishment']",ChIJ6-V2qP4D3IARF8anKDxl_5A,32.8504529,-117.2729344,,584
Children's Pool,"Village of La Jolla, CA 92037, USA",4.4,"['natural_feature', 'establishment']",ChIJg52cbPoD3IARv6a5LqbXHM4,32.8477189,-117.2782892,,1064
Las Americas Premium Outlets,"4211 Camino De La Plaza, San Diego, CA 92173, USA",4.5,"['shopping_mall', 'point_of_interest', 'establishment']",ChIJka06sBpJ2YAR9T9ROsIgisk,32.5436944,-117.041036,,729
San Diego Air & Space Museum,"2001 Pan American Plaza, San Diego, CA 92101, USA",4.5,"['museum', 'point_of_interest', 'establishment']",ChIJpZPqMqNU2YARvWok4Fl9Thc,32.7263215,-117.1542858,,691
Fashion Valley Shopping Center,"7007 Friars Rd, San Diego, CA 92108, USA",4.5,"['shopping_mall', 'point_of_interest', 'establishment']",ChIJ-Vi3YjFV2YARwrGaFNvAayQ,32.7679611,-117.1667329,,505
San Diego Model Railroad Museum,"1649 El Prado, San Diego, CA 92101, USA",4.5,"['museum', 'point_of_interest', 'establishment']",ChIJV6IUNpZU2YARm65b3WP7zAQ,32.7311102,-117.148621,,455
Torrey Pines State Beach,"La Jolla, CA 92037, USA",4.8,"['natural_feature', 'establishment']",ChIJ1brlAwQG3IARjGOJN5zd46A,32.9361564,-117.2614258,,238
Harbor and Shelter Islands,"San Diego, CA 92106, USA",4.6,"['natural_feature', 'establishment']",ChIJ12k6zpCr3oARvDS3T7x-Sc0,32.7130403,-117.2278171,,279
Liberty Public Market,"2820 Historic Decatur Rd, San Diego, CA 92106, USA",4.6,"['food', 'point_of_interest', 'establishment']",ChIJqTNLdAOr3oARx08fgT_mxGg,32.7400605,-117.2110198,,201
Belmont Park,"3146 Mission Blvd, San Diego, CA 92109, USA",4.4,"['amusement_park', 'point_of_interest', 'establishment']",ChIJGZfrmeJU2YARL4VJe0IZZRQ,32.770641,-117.252069,,692
Ocean Beach Dog Beach,"Ocean Beach Bike Path, San Diego, CA 92107, USA",4.6,"['natural_feature', 'point_of_interest', 'establishment']",ChIJq6HCLzyq3oARjayb4Zr6vc0,32.7548096,-117.2522544,,306
Mission San Diego de Alcala,"10818 San Diego Mission Rd, San Diego, CA 92108, USA",4.5,"['place_of_worship', 'point_of_interest', 'establishment']",ChIJIWa0KblV2YARDrDw62rJEds,32.7846349,-117.106001,,295
Black's Beach,"San Diego, CA 92037, USA",4.6,"['natural_feature', 'establishment']",ChIJKw-CyI8G3IARj9ySO5sCoc4,32.8895561,-117.2536491,,252
University of California San Diego,"9500 Gilman Dr, La Jolla, CA 92093, USA",4.4,"['university', 'point_of_interest', 'establishment']",ChIJT69MQcQG3IARpz6Rifyqtu8,32.8800604,-117.2340135,,282
Cabrillo Tide Pools,"1800 Cabrillo Memorial Drive, San Diego, CA 92106, USA",4.7,"['park', 'point_of_interest', 'establishment']",ChIJt4Yxpzis3oARNqPli2pGGIs,32.668092,-117.2446206,,305
Girard Avenue and Prospect Street,"Prospect St & Girard Ave, La Jolla, CA 92037, USA",0.0,['intersection'],EjFQcm9zcGVjdCBTdCAmIEdpcmFyZCBBdmUsIExhIEpvbGxhLCBDQSA5MjAzNywgVVNB,32.8474698,-117.2748165,,257
ARTS DISTRICT Liberty Station,"2825 Dewey Rd, San Diego, CA 92106, USA",4.3,"['art_gallery', 'movie_theater', 'museum', 'park', 'electronics_store', 'home_goods_store', 'store', 'restaurant', 'food', 'point_of_interest', 'establishment']",ChIJF6j8GgSr3oAROo7GJ8HYqdg,32.7394699,-117.2128044,,129
Ellen Browning Scripps Park,"1100 Coast Blvd, La Jolla, CA 92037, USA",4.6,"['park', 'point_of_interest', 'establishment']",ChIJ9Q6Q4_sD3IAROr3uf6M5qoU,32.8497568,-117.2744567,,152
San Diego Mormon Temple,"7474 Charmant Dr, San Diego, CA 92122, USA",4.7,"['church', 'place_of_worship', 'point_of_interest', 'establishment']",ChIJ_5qiLdMG3IARpC-p-BDvgTY,32.8663903,-117.2287538,,258
Spreckels Organ Pavilion,"2125 Pan American Rd E, San Diego, CA 92101, USA",4.7,"['point_of_interest', 'establishment']",ChIJWxA2e71U2YARM27mSOWmZhk,32.7293763,-117.1504087,,295
San Diego Natural History Museum,"1788 El Prado, San Diego, CA 92101, USA",4.4,"['museum', 'point_of_interest', 'establishment']",ChIJN0BfV5ZU2YARe0K26koVPa4,32.7321106,-117.1474594,,370
Salk Institute,"10010 N Torrey Pines Rd, La Jolla, CA 92037, USA",4.7,"['point_of_interest', 'establishment']",ChIJPTZzlpQG3IARYMv1iNBTzGs,32.8873915,-117.2453427,,185
La Jolla Playhouse,"2910 La Jolla Village Dr, La Jolla, CA 92037, USA",4.8,"['point_of_interest', 'establishment']",ChIJm8_QXMgG3IARbMTAqu9HSKw,32.8709754,-117.2412413,,189
Embarcadero,"San Francisco, CA, USA",0.0,"['neighborhood', 'political']",ChIJrUM2mWaAhYARfx6a1ZmDF3c,37.7992627,-122.3976732,,158
Spanish Village Art Center,"1770 Village Pl, San Diego, CA 92101, USA",4.3,"['art_gallery', 'point_of_interest', 'establishment']",ChIJTbIweJZU2YARhAbEo1Ysldw,32.7332156,-117.1476222,,146
Bernardo Winery,"13330 Paseo Del Verano Norte, San Diego, CA 92128, USA",4.7,"['cafe', 'bar', 'store', 'food', 'point_of_interest', 'establishment']",ChIJpXtTiuLw24ARymFJcYGDwVI,33.032565,-117.046869,,187
Old Town Model Railroad Depot,"2415 San Diego Ave #107, San Diego, CA 92110, USA",4.9,"['amusement_park', 'museum', 'point_of_interest', 'establishment']",ChIJHTPsO-L424AR7XWURsLBxXE,32.7516361,-117.1936954,,75
San Diego Museum of Art,"1450 El Prado, San Diego, CA 92102, USA",4.3,"['museum', 'point_of_interest', 'establishment']",ChIJLyIl671U2YAREAPW56PTL3k,32.732158,-117.15043,,231
San Diego Museum of Man,"1350 El Prado, San Diego, CA 92101, USA",4.3,"['museum', 'point_of_interest', 'establishment']",ChIJITq8z71U2YARtcp6IYi3thE,32.7317567,-117.1523183,,335
Timken Museum of Art,"1500 El Prado, San Diego, CA 92101, USA",4.5,"['museum', 'point_of_interest', 'establishment']",ChIJmXZejb1U2YARR7F0GIoN_mQ,32.7318429,-117.14961,,152
Japanese Friendship Garden,"1125 N 3rd Ave, Phoenix, AZ 85003, USA",4.4,"['park', 'point_of_interest', 'establishment']",ChIJN5CSNjkSK4cRZV7qrtVTlvE,33.460925,-112.0760608,,237
Whaley House Museum,"2476 San Diego Ave, San Diego, CA 92110, USA",4.3,"['museum', 'point_of_interest', 'establishment']",ChIJVW0qirT_24AR0hR713TZcOQ,32.752778,-117.194556,,281
Shell Beach Tide Pools,"San Diego, CA 92037, USA",3.7,"['natural_feature', 'establishment']",ChIJ-5-uzfsD3IARoq8gT5--5ns,32.84883060000001,-117.2762168,,139
Mission Brewery,"1441 L St, San Diego, CA 92101, USA",4.5,"['bar', 'food', 'point_of_interest', 'establishment']",ChIJz908Rl1T2YAR-a9YDMj1JOg,32.7071477,-117.1515916,,108
Mission Trails Regional Park,"1 Father Junipero Serra Trail, San Diego, CA 92119, USA",4.7,"['park', 'point_of_interest', 'establishment']",ChIJPXDC_Iv924ARj0aMv6SqTyM,32.817952,-117.05601,,140
San Diego Automotive Museum,"2080 Pan American Plaza, San Diego, CA 92101, USA",4.1,"['museum', 'point_of_interest', 'establishment']",ChIJKQfx0LxU2YARLRX14eAkak0,32.7274775,-117.1538745,,215
San Diego Symphony,"750 B St, San Diego, CA 92101, USA",4.7,"['point_of_interest', 'establishment']",ChIJvwCR-qZU2YARNFw_hFEN6NQ,32.718063,-117.1579,,83
Fleet Science Center,"1875 El Prado, San Diego, CA 92101, USA",4.4,"['museum', 'point_of_interest', 'establishment']",ChIJITml-JZU2YARvg2lEVgD-E8,32.7308009,-117.1469593,,279
Museum of Contemporary Art San Diego,"1100 Kettner Blvd, San Diego, CA 92101, USA",3.7,"['art_gallery', 'point_of_interest', 'establishment']",ChIJpzV5yatU2YARmMGDsz_MVI0,32.717316,-117.1693526,,177
Mingei International Museum,"Plaza de Panama, Balboa Park, 1439 El Prado, San Diego, CA 92101, USA",4.5,"['museum', 'point_of_interest', 'establishment']",ChIJmWcp671U2YARlCWX8coNpBg,32.7311237,-117.1510264,,105
AleSmith Brewing Company,"9990 AleSmith Ct, San Diego, CA 92126, USA",4.6,"['food', 'point_of_interest', 'establishment']",ChIJdbu-S8n424ARmAQGos2PY2s,32.888186,-117.1498484,,85
San Diego Factory Outlet Center,"4211 Camino De La Plaza, San Diego, CA 92173, USA",4.5,"['shopping_mall', 'point_of_interest', 'establishment']",ChIJka06sBpJ2YAR9T9ROsIgisk,32.5436944,-117.041036,,99
University of San Diego USD,"5998 Alcala Park, San Diego, CA 92110, USA",4.2,"['university', 'point_of_interest', 'establishment']",ChIJz4tlvLiq3oARaDq0CBbodNc,32.7719191,-117.188213,,74
Sheriff's Museum,"2384 San Diego Ave, San Diego, CA 92110, USA",4.7,"['museum', 'point_of_interest', 'establishment']",ChIJJ9GfEN-q3oAR3j-iZyGi_4A,32.7510078,-117.193116,,63
Children's Nature Retreat,"5178 Japatul Spur, Alpine, CA 91901, USA",4.8,"['zoo', 'point_of_interest', 'establishment']",ChIJcbo80MBl2YARZ2P4z7NW2y4,32.76751000000001,-116.681176,,30
PB Ale House,"721 Grand Ave, San Diego, CA 92109, USA",4.3,"['bar', 'restaurant', 'food', 'point_of_interest', 'establishment']",ChIJq0x9g-0B3IARzcpjOu0CRaw,32.7943424,-117.2553594,,111
South Carlsbad State Beach,"California, USA",4.5,"['natural_feature', 'establishment']",ChIJa84Qs9By3IAR4F2AtlgOb3s,33.1026212,-117.320145,,124
Waterfront Walkway,"Hoboken, NJ 07030, USA",4.7,"['park', 'point_of_interest', 'establishment']",ChIJaeNgBeFZwokRXJdOcz503nE,40.7405124,-74.02661549999999,,59
Santa Fe Depot (Union Station),"1050 Kettner Blvd, San Diego, CA 92101, USA",4.1,"['train_station', 'bus_station', 'transit_station', 'point_of_interest', 'establishment']",ChIJq6qGUzWr3oARkdObZ-Eh45g,32.7167185,-117.1695765,,80
San Diego Central Library,"330 Park Blvd, San Diego, CA 92101, USA",4.4,"['library', 'point_of_interest', 'establishment']",ChIJq_1kX1xT2YARJsfApHRz6xo,32.7087057,-117.1542281,,72
Little Italy Mercato Farmers' Market,"519 W Cedar St, San Diego, CA 92101, USA",4.6,"['point_of_interest', 'establishment']",ChIJ5Xwm-61U2YARSLIbd0Nwhr8,32.7219454,-117.1676191,,35
Waterfront Park,"1600 Pacific Hwy, San Diego, CA 92101, USA",4.6,"['park', 'point_of_interest', 'establishment']",ChIJA6VEXa1U2YARujw0K903u5k,32.7219431,-117.1722336,,54
Cowles Mountain,"San Diego, CA 92119, USA",4.5,"['natural_feature', 'establishment']",ChIJPT8WXMtX2YARDc4W3ZkhkhQ,32.8134243,-117.0305556,,57
Wave House,"36 Siloso Beach Walk, Singapore 099007",4.2,"['bar', 'restaurant', 'food', 'point_of_interest', 'establishment']",ChIJO3EO3_gb2jERT0QaVjJd6hk,1.25448,103.813853,,157
La Jolla Open Aire Market,"7335 Girard Ave, La Jolla, CA 92037, USA",4.6,"['food', 'point_of_interest', 'establishment']",ChIJ4-2bKdtU2YARnib8pOyj9JQ,32.838405,-117.271424,,67
The New Children's Museum,"200 W Island Ave, San Diego, CA 92101, USA",4.4,"['museum', 'point_of_interest', 'establishment']",ChIJldZd-1ZT2YAR0rXTzPlFJ_8,32.7106681,-117.1651946,,155
Flying Leatherneck Aviation Museum,"4203 Anderson Ave, San Diego, CA 92145, USA",4.6,"['museum', 'point_of_interest', 'establishment']",ChIJA7JSg9L424ARYhVS2Jhsiq0,32.8911637,-117.1386351,,66
Qualcomm Stadium,"9449 Friars Rd, San Diego, CA 92108, USA",3.9,"['stadium', 'point_of_interest', 'establishment']",ChIJ4flusIJU2YARyyb4YTMG1jM,32.7831122,-117.1195716,,300
San Diego Civic Theatre,"1100 Third Ave, San Diego, CA 92101, USA",4.5,"['point_of_interest', 'establishment']",ChIJ9TWHh6hU2YARMObTC4k8I3A,32.717426,-117.1624216,,84
Coast Boulevard Park,"La Jolla, CA 92037, USA",0.0,['route'],ChIJoSBjMvsD3IARlfDy1hWykBA,32.8450381,-117.2784869,,29
Fiesta Island,"1590 East Mission Bay Drive, San Diego, CA 92109, USA",4.6,"['park', 'point_of_interest', 'establishment']",ChIJAc7gW4eq3oARd2ZNz1Wd9d4,32.7711421,-117.2153764,,52
Map and Atlas Museum of La Jolla,"7825 Fay Ave, La Jolla, CA 92037, USA",4.8,"['museum', 'point_of_interest', 'establishment']",ChIJ6aZcNvsD3IARx5IHNIFp-1E,32.8452198,-117.2748549,,37
The Headquarters at Seaport,"789 W Harbor Dr, San Diego, CA 92101, USA",4.4,"['shopping_mall', 'point_of_interest', 'establishment']",ChIJDX-1zERT2YARuuERGeFhzQQ,32.7108624,-117.1701497,,60
California Tower,"30-32 D'Aguilar St, Central, Hong Kong",3.9,"['restaurant', 'bar', 'food', 'point_of_interest', 'establishment']",ChIJvaIYLHsABDQR6SK_GrY0xqc,22.2809076,114.1555006,,43
Ocean Beach Municipal Pier,"Niagara Ave, San Diego, CA 92107, USA",4.6,"['point_of_interest', 'establishment']",ChIJI4rq9Tqq3oARKUybwPWJ5t0,32.7469561,-117.2533131,,29
Museum of Photographic Arts (MoPA),"1649 El Prado, San Diego, CA 92101, USA",4.4,"['art_gallery', 'museum', 'point_of_interest', 'establishment']",ChIJV6IUNpZU2YAR9VQcaQBF5cA,32.7311076,-117.1488422,,97
Inez Grant Parker Memorial Rose Garden,"2125 Park Blvd, San Diego, CA 92104, USA",4.5,"['park', 'point_of_interest', 'establishment']",ChIJ63CmH5dU2YARTD5Iv8LAGlU,32.7315471,-117.145777,,35
El Prado,"Paseo del Prado, s/n, 28014 Madrid, Spain",4.7,"['museum', 'point_of_interest', 'establishment']",ChIJ7aLYZp0oQg0RWoitk33wlBA,40.4137818,-3.6921271,,52
Gaslamp Museum at the Davis-Horton House,"410 Island Ave, San Diego, CA 92101, USA",3.8,"['museum', 'point_of_interest', 'establishment']",ChIJP_hB71lT2YAR8zwNVdBewng,32.7105762,-117.1606887,,49
Belching Beaver North Park,"4223 30th St, San Diego, CA 92104, USA",4.6,"['bar', 'food', 'point_of_interest', 'establishment']",ChIJ55Fnt_lU2YAR9vkXtkrpzcs,32.7545601,-117.1300587,,31
Geisel Library,"9500 Gilman Dr, La Jolla, CA 92093, USA",4.7,"['library', 'point_of_interest', 'establishment']",ChIJK5Rq3cMG3IAReYrGhOZmGG4,32.8811507,-117.2374497,,36
The Promenade at Pacific Beach,"2369 Riviera Dr, San Diego, CA 92109, USA",4.4,"['shopping_mall', 'point_of_interest', 'establishment']",ChIJNWKzDO4B3IARnCvBN8A4MpU,32.7913197,-117.2544418,,46
Marston House Museum,"3525 7th Ave, San Diego, CA 92103, USA",4.6,"['museum', 'point_of_interest', 'establishment']",ChIJ8d0UJ8RU2YARnzheU1H3f5U,32.7417202,-117.1578299,,74
Westfield Horton Plaza,"324 Horton Plaza, San Diego, CA 92101, USA",3.8,"['shopping_mall', 'shoe_store', 'department_store', 'clothing_store', 'store', 'restaurant', 'food', 'point_of_interest', 'establishment']",ChIJI0s48FdT2YARQHvPuBW-I4M,32.7138765,-117.1623614,,323
Balboa Theatre,"3630 Balboa St, San Francisco, CA 94121, USA",4.4,"['movie_theater', 'electronics_store', 'home_goods_store', 'store', 'point_of_interest', 'establishment']",ChIJD9qE-6WHhYARYDtpvads6FQ,37.7758592,-122.4979727,,39
The Firehouse Museum,"1572 Columbia St, San Diego, CA 92101, USA",4.5,"['museum', 'point_of_interest', 'establishment']",ChIJI8fhtatU2YARH_nFBvdm7x4,32.7217383,-117.1675506,,27
Cuvier Park - The Wedding Bowl,"590 Coast Blvd S, La Jolla, CA 92037, USA",4.6,"['park', 'point_of_interest', 'establishment']",ChIJ9xzW_O8D3IARy81KHoNgM70,32.8435225,-117.2800282,,26
Scripps Institute of Oceanography Coastal Reserve,"8622 Kennel Way, La Jolla, CA 92037, USA",4.8,"['university', 'point_of_interest', 'establishment']",ChIJLZGoPrEG3IARuDF5S-xWn9M,32.8681401,-117.2503233,,32
Giant Dipper Roller Coaster,"3146 Mission Blvd, San Diego, CA 92109, USA",4.5,"['point_of_interest', 'establishment']",ChIJGZfrmeJU2YARi4f-1PJX_vA,32.771384,-117.2517223,,51
Murals of La Jolla,"1008 Wall St, La Jolla, CA 92037, USA",4.2,"['library', 'point_of_interest', 'establishment']",ChIJ0wMRZfsD3IARGMmBQSgVLO8,32.8469639,-117.2741933,,15
Los Penasquitos Canyon Preserve,"12020 Black Mountain Rd, San Diego, CA 92129, USA",4.6,"['park', 'point_of_interest', 'establishment']",ChIJ950WqlP424AR_aAygIAHs9M,32.9370973,-117.1276603,,42
Mission Valley Center,"1640 Camino Del Rio N, San Diego, CA 92108, USA",4.2,"['shopping_mall', 'shoe_store', 'movie_theater', 'department_store', 'clothing_store', 'electronics_store', 'home_goods_store', 'store', 'restaurant', 'food', 'point_of_interest', 'establishment']",ChIJs2n-qRlV2YARq_acCtnYnGA,32.7685992,-117.1480084,,43
Africa and Beyond,"55 Snowdon Rd, Eccles, Manchester M30 9AS, UK",5.0,"['travel_agency', 'point_of_interest', 'establishment']",ChIJHbqEnN6ue0gR-9Uv3_oRSx8,53.4910293,-2.3304372,,22
Alcazar Garden,"1363 El Prado, San Diego, CA 92101, USA",4.5,"['park', 'point_of_interest', 'establishment']",ChIJiQhcvr1U2YARgLK-JWBZeFc,32.731099,-117.151633,,38
Border Field State Park,"1500 Monument Rd, San Diego, CA 92154, USA",4.3,"['park', 'point_of_interest', 'establishment']",ChIJrdf2xaFL2YAR896CVE6OIoA,32.54434,-117.1227283,,40
Cygnet Theater Company,"4040 Twiggs St, San Diego, CA 92110, USA",4.8,"['point_of_interest', 'establishment']",ChIJZ1Xyz-xW2YARtXy3Qr9DrLU,32.7541738,-117.1954925,,29
San Pasqual Winery,"8364 La Mesa Blvd, La Mesa, CA 91942, USA",4.9,"['liquor_store', 'bar', 'store', 'food', 'point_of_interest', 'establishment']",ChIJWU9i9zxX2YARkTvDHZYaGRw,32.7657303,-117.0179078,,29
Presidio Park,"2811 Jackson St, San Diego, CA 92110, USA",4.5,"['park', 'point_of_interest', 'establishment']",ChIJ14S2e9uq3oARUDwkTmVPY5M,32.7582,-117.1960909,,42
San Diego History Center,"1649 El Prado, San Diego, CA 92101, USA",4.5,"['museum', 'point_of_interest', 'establishment']",ChIJV6IUNpZU2YARAQRTp-SrHAw,32.7312503,-117.1482327,,52
Kellogg Park,"8300 Camino Del Oro, La Jolla, CA 92037, USA",4.7,"['park', 'point_of_interest', 'establishment']",ChIJOVYGolIB3IARXNhQNGFaCYE,32.8589947,-117.2557447,,22
La Jolla Underwater Park,"8302 Camino Del Oro, La Jolla, CA 92037, USA",4.5,"['park', 'point_of_interest', 'establishment']",ChIJmboG91MB3IARhyEg1DluNjA,32.8529349,-117.262017,,21
Horton Grand Theatre,"444 Fourth Ave, San Diego, CA 92101, USA",4.6,"['point_of_interest', 'establishment']",ChIJfcVe-llT2YARq4u_Nkf1TAs,32.7100293,-117.1611833,,33
Valley View Casino Center,"3500 Sports Arena Blvd, San Diego, CA 92110, USA",4.0,"['point_of_interest', 'establishment']",ChIJVXfmf_qq3oARqh7FB1SxyN4,32.755274,-117.212196,,71
Cutwater Distillery,"9750 Distribution Ave, San Diego, CA 92121, USA",4.4,"['restaurant', 'food', 'point_of_interest', 'establishment']",ChIJjUCnpK3424ARzP47exFQWm8,32.884446,-117.163612,,14
Sheraton Harbor Island Hotel Jogging Course,"1380 Harbor Island Dr, San Diego, CA 92101, USA",4.1,"['lodging', 'point_of_interest', 'establishment']",ChIJz51XAUCr3oAR6XwxuHXrOUc,32.7270687,-117.1978609,,36
Societe Brewing Company,"8262 Clairemont Mesa Blvd, San Diego, CA 92111, USA",4.5,"['bar', 'food', 'point_of_interest', 'establishment']",ChIJBRGLOqP_24ARDeKsNGwQGBI,32.833882,-117.1463722,,21
Tuna Harbor Park,"3 Tuna Ln, San Diego, CA 92101, USA",4.5,"['park', 'point_of_interest', 'establishment']",ChIJKW6HP1Wr3oAR09lwu8XE8es,32.7126247,-117.1746937,,20
Red Spade Theater,"2539 Congress St b, San Diego, CA 92110, USA",4.6,"['point_of_interest', 'establishment']",ChIJxfMkGN6q3oARht80mpEqSks,32.7521989,-117.1963919,,20
Kobey's Swap Meet,"3500 Sports Arena Blvd, San Diego, CA 92110, USA",4.3,"['point_of_interest', 'establishment']",ChIJVXfmf_qq3oAR2vNSBwuQqK8,32.7546791,-117.2142157,,46
Kate Sessions Memorial Park,"5115 Soledad Rd, San Diego, CA 92109, USA",4.8,"['park', 'point_of_interest', 'establishment']",ChIJ2zcFYqMB3IARMau_-x4xtJM,32.8109337,-117.2372693,,22
Spreckels Theater,"121 Broadway Cir # 600, San Diego, CA 92101, USA",4.3,"['movie_theater', 'electronics_store', 'home_goods_store', 'store', 'point_of_interest', 'establishment']",ChIJ6SOfPahU2YAR5VSoXA-fsvg,32.715538,-117.1633972,,34
University Town Center,"Sarasota, FL 34243, USA",0.0,['route'],ChIJjzuqZec4w4gRVjzYddNYU0M,27.3848973,-82.4508092,,26
San Diego Chinese Historical Museum,"404 Third Ave, San Diego, CA 92101, USA",3.7,"['museum', 'point_of_interest', 'establishment']",ChIJhW9tVFdT2YARrDZga-IGb34,32.7095394,-117.1623379,,28
Seeley Stables,"1500 Co Rd 90, Dansville, NY 14437, USA",3.1,"['point_of_interest', 'establishment']",ChIJU1-0Z4B20YkRQ919LOMMnjY,42.546284,-77.65586499999999,,19
Mushroom Beach,"Lembongan island, Jungutbatu, Nusapenida, Kabupaten Klungkung, Bali 80771, Indonesia",4.1,"['lodging', 'point_of_interest', 'establishment']",ChIJDS1N8q5t0i0REmOxn8HtGpA,-8.6821941,115.4336128,,19
Fall Brewing Company,"4542 30th St, San Diego, CA 92116, USA",4.5,"['food', 'point_of_interest', 'establishment']",ChIJc-4U6f5U2YARIsVvVBc0FSQ,32.7600212,-117.1306071,,17
Chicano Park,"San Diego, CA 92113, USA",4.6,"['park', 'point_of_interest', 'establishment']",ChIJAQAAAKRT2YARxBLiRR-1zdY,32.6996515,-117.1425877,,16
The Observatory North Park,"2891 University Ave, San Diego, CA 92104, USA",4.3,"['point_of_interest', 'establishment']",ChIJ2eY6pPZU2YARxP5X3qL_DWk,32.747974,-117.1312875,,16
Veterans Museum & Memorial Center,"12 Garden Center, Broomfield, CO 80020, USA",5.0,"['museum', 'point_of_interest', 'establishment']",ChIJ7WGcZamLa4cRhrSriF3hNwY,39.923146,-105.085642,,24
Casa De Balboa,"229 19th St, Newport Beach, CA 92663, USA",4.6,"['real_estate_agency', 'travel_agency', 'point_of_interest', 'establishment']",ChIJC6aoNf4f3YARuwYbTRY-3i8,33.6091508,-117.9262648,,23
Fisherman's Landing,"2838 Garrison St, San Diego, CA 92106, USA",4.4,"['point_of_interest', 'establishment']",ChIJMeu44qOr3oARVQkKfTd7npk,32.724891,-117.227287,,31
Miramar Reservoir,"San Diego, CA 92131, USA",4.7,"['natural_feature', 'establishment']",ChIJ8UNt7kH524ARDIVEiUyXkhg,32.9151919,-117.0992659,,26
House of Pacific Relations International Cottages,"2191 Pan American Rd W, San Diego, CA 92101, USA",5.0,"['point_of_interest', 'establishment']",ChIJEfNgMphU2YARsohgOxikn-g,32.7293811,-117.1516852,,18
Viejas Arena,"5500 Canyon Crest Dr, San Diego, CA 92182, USA",4.4,"['point_of_interest', 'establishment']",ChIJASLBHoFW2YAR0YRjYwGJi04,32.7738062,-117.0746039,,15
Stuart Collection,"9500 Gilman Dr, La Jolla, CA 92093, USA",3.2,"['museum', 'point_of_interest', 'establishment']",ChIJvcSjadgG3IARkJUCWFTm3MM,32.8781795,-117.2341668,,17
Fanuel Beach Park,"San Diego, CA 92109, USA",0.0,['route'],ChIJ4xkLVJQB3IARnsN6j-v4LX4,32.8009291,-117.2470721,,10
Catalina Offshore Products,"5202 Lovelock St, San Diego, CA 92110, USA",4.7,"['food', 'point_of_interest', 'establishment']",ChIJO1rsgeyq3oARwKm39w3QSRc,32.7653143,-117.2029642,,14
Junipero Serra Museum,"2727 Presidio Dr, San Diego, CA 92101, USA",4.1,"['museum', 'point_of_interest', 'establishment']",ChIJdRGe0MKq3oARRvGm04rrbPg,32.7596781,-117.1934732,,31
Balboa Park Carousel,"2920 Zoo Dr, San Diego, CA 92101, USA",5.0,"['point_of_interest', 'establishment']",ChIJ_bGAMZRU2YARxbWtbEuv-z4,32.7345801,-117.1466932,,20
J.A. Cooley Museum,"4233 Park Blvd, San Diego, CA 92103, USA",5.0,"['museum', 'point_of_interest', 'establishment']",ChIJBZXgzOZU2YARxjr9e4SBUwY,32.7547188,-117.1460201,,13
Mision San Diego de Alcala,"10818 San Diego Mission Rd, San Diego, CA 92108, USA",4.5,"['place_of_worship', 'point_of_interest', 'establishment']",ChIJIWa0KblV2YARDrDw62rJEds,32.7846349,-117.106001,,16
Museum of Contemporary Art - Downtown,"250 S Grand Ave, Los Angeles, CA 90012, USA",4.5,"['museum', 'point_of_interest', 'establishment']",ChIJY5ZK_UzGwoARMPtCpae6vAI,34.0532736,-118.2504322,,29
San Diego Opera,"233 A St #500, San Diego, CA 92101, USA",4.3,"['point_of_interest', 'establishment']",ChIJ_YqFl6hU2YARVEEYKVL_lU0,32.7186273,-117.1622946,,13
Acoustic Ales Brewing,"1795 Hancock St, San Diego, CA 92110, USA",4.5,"['food', 'point_of_interest', 'establishment']",ChIJ3Y5ehS-r3oARalBiJaI1inY,32.7420295,-117.1840214,,11
La Jolla Village Information Center,"7911 Herschel Ave, La Jolla, CA 92037, USA",0.0,"['travel_agency', 'point_of_interest', 'establishment']",ChIJe2UzhvsD3IAR4puy4Brb2Kk,32.8472037,-117.2731687,,19
Marie Hitchcock Puppet Theater,"2130 Pan American Plaza, San Diego, CA 92101, USA",3.6,"['point_of_interest', 'establishment']",ChIJP4ZtGL1U2YAR2-amuR5lrcQ,32.7284261,-117.1534342,,16
Casa de Estudillo,"4000 Mason St, San Diego, CA 92110, USA",4.6,"['museum', 'point_of_interest', 'establishment']",ChIJ9fLD9t2q3oARDtVQFy1mhW0,32.754306,-117.1967596,,20
Calumet Park,"Calumet Township, IL, USA",0.0,"['locality', 'political']",ChIJv_g-JH0kDogRiFxX0ah4T6o,41.6628119,-87.6606037,,9
Razor Point and Beach Trail Loop,"La Jolla, CA 92037, USA",0.0,['route'],ChIJaf_qC3IG3IARoG-qaDW1nU8,32.9182676,-117.2560266,,12
Morley Field,"3090 Pershing Dr, San Diego, CA 92103, USA",4.6,"['point_of_interest', 'establishment']",ChIJ62w6L4xU2YARMwp_H0FGfks,32.7366475,-117.1359448,,12
Cabrillo Bridge,"El Prado, San Diego, CA 92101, USA",4.9,"['point_of_interest', 'establishment']",ChIJCxmf_btU2YARuAV73Ce12YI,32.7314214,-117.1545192,,16
Plaza de Panama Fountain,"San Diego, CA 92101, USA",0.0,"['premise', 'park', 'point_of_interest', 'establishment']",ChIJbapijL1U2YAReHkJYM27wRA,32.73145179999999,-117.1504299,,13
San Diego Repertory Theatre,"79 Horton Plaza, San Diego, CA 92101, USA",4.0,"['point_of_interest', 'establishment']",ChIJNTZf8FdT2YARQM54Qgbjo6M,32.7147381,-117.1619568,,16
San Diego Hall of Champions Sports Museum,"San Diego, CA, USA",4.8,"['park', 'museum', 'point_of_interest', 'establishment']",ChIJA8tw-pZU2YARxPYVsDwL8-0,32.7341479,-117.144553,,37
Lyceum Theater,"149 W 45th St, New York, NY 10036, USA",4.5,"['point_of_interest', 'establishment']",ChIJtehhClVYwokRjEHM1kjDj2M,40.7577485,-73.9846178,,16
Diversionary Theatre,"4545 Park Blvd #101, San Diego, CA 92116, USA",4.5,"['point_of_interest', 'establishment']",ChIJvWJf2OFU2YAR2XPy95icUTc,32.75999,-117.146065,,10
San Diego's 59 Mile Scenic Drive,"59 Scenic Dr, El Cajon, CA 92021, USA",0.0,['street_address'],EiU1OSBTY2VuaWMgRHIsIEVsIENham9uLCBDQSA5MjAyMSwgVVNB,32.8112516,-116.863661,,15
Point Loma Nazarene College,"3900 Lomaland Dr, San Diego, CA 92106, USA",4.6,"['university', 'point_of_interest', 'establishment']",ChIJ0Udq_t3bwoARY5ZofSu3i68,32.716863,-117.250694,,15
St James by-The-Sea Episcopal Church,"743 Prospect St, La Jolla, CA 92037, USA",4.4,"['church', 'place_of_worship', 'point_of_interest', 'establishment']",ChIJ-Yns2foD3IAR0N5EH_B_Jgg,32.8447645,-117.2768612,,10
El Campo Santo Cemetery,"15415 Don Julian Rd, City of Industry, CA 91745, USA",0.0,"['cemetery', 'premise', 'point_of_interest', 'establishment']",ChIJzZcocXnWwoARPIDLsfk_laA,34.0182588,-117.9631125,,9
St. Joseph Cathedral,Al Mushrif - Abu Dhabi - United Arab Emirates,4.6,"['church', 'place_of_worship', 'point_of_interest', 'establishment']",ChIJG9zVNoloXj4RPc2tAa-wDFQ,24.4486756,54.3851324,,7
Malahat Spirits,"8706 Production Ave, San Diego, CA 92121, USA",4.9,"['point_of_interest', 'establishment']",ChIJixeQZKz424ART4n7dTwe_QA,32.883481,-117.16678,,7
La Jolla Recreation Center,"615 Prospect St, La Jolla, CA 92037, USA",4.2,"['point_of_interest', 'establishment']",ChIJqWt5SOUD3IARAvP8J7xjOqk,32.8433224,-117.2778663,,13
Spanish Landing,"3900 N Harbor Dr, San Diego, CA 92101, USA",4.6,"['point_of_interest', 'establishment']",ChIJe_gF6Eur3oAR_h9L9KbNRoc,32.72901,-117.2050653,,19
Tuna Harbor Dockside Market,"598 Harbor Ln, San Diego, CA 92101, USA",4.7,"['food', 'point_of_interest', 'establishment']",ChIJCSR_QlVT2YARQoVncEZvkBE,32.7092851,-117.1727583,,10
Casa del Rey Moro African Museum,"2471 Congress St, San Diego, CA 92110, USA",4.7,"['museum', 'point_of_interest', 'establishment']",ChIJMekITN6q3oARpRZuOxLbgKY,32.7515298,-117.1952351,,8
Modern Times Tasting Room Flavordome,"3000 Upas St, San Diego, CA 92104, USA",4.7,"['bar', 'food', 'point_of_interest', 'establishment']",ChIJo3g7GotU2YAR0ew6fl4knLc,32.7415577,-117.12993,,10
Groundswell Brewing Company,"6304 Riverdale St, San Diego, CA 92120, USA",4.6,"['food', 'point_of_interest', 'establishment']",ChIJ7SLsAMFV2YARBS1tbwfW7c4,32.7889952,-117.0997872,,9
Duck Foot Brewing Company,"8920 Kenamar Dr #210, San Diego, CA 92121, USA",4.5,"['food', 'point_of_interest', 'establishment']",ChIJlQBxgLP424ARRZziPUaOVAU,32.885153,-117.156318,,8
Quartyard,"1301 Market St, San Diego, CA 92101, USA",4.5,"['bar', 'park', 'restaurant', 'food', 'point_of_interest', 'establishment']",ChIJg-AEo15T2YARtlKsNmvT47c,32.711373,-117.152622,,8
Koi Zen Cellars Urban Winery,"12225 World Trade Dr P, San Diego, CA 92128, USA",4.8,"['liquor_store', 'bar', 'storage', 'store', 'food', 'point_of_interest', 'establishment']",ChIJn1Y25Knw24ARuWulOZnOcig,32.986529,-117.072411,,6
Women's Museum of California,"2730 Historic Decatur Rd #103, San Diego, CA 92106, USA",4.9,"['museum', 'point_of_interest', 'establishment']",ChIJ6fk7xGNT2YARW6LxTVxZLqo,32.7390934,-117.2126377,,7
Miramar National Cemetery,"5795 Nobel Dr, San Diego, CA 92122, USA",4.4,"['cemetery', 'point_of_interest', 'establishment']",ChIJa-FMzLMA3IARr-DoHs8_NEU,32.8724298,-117.189563,,8
First San Diego Courthouse,"2733 San Diego Ave, San Diego, CA 92110, USA",5.0,"['museum', 'point_of_interest', 'establishment']",ChIJ7VSnWeeq3oARMBUTICjXTcE,32.7541074,-117.1973097,,11
Rough Draft Brewing Company,"8830 Rehco Rd D, San Diego, CA 92121, USA",4.6,"['bar', 'restaurant', 'food', 'point_of_interest', 'establishment']",ChIJ4_r2Nqr424ARb0VwXYbYZ1s,32.883568,-117.171719,,8
Stone Company Store on Kettner,"1202 Kettner Blvd #101, San Diego, CA 92101, USA",4.6,"['liquor_store', 'bar', 'store', 'restaurant', 'food', 'point_of_interest', 'establishment']",ChIJi1rndaxU2YARkK9J_jMX0kM,32.7178899,-117.1695351,,6
Second Chance Beer Co.,"15378 Avenue of Science #222, San Diego, CA 92128, USA",4.7,"['food', 'point_of_interest', 'establishment']",ChIJ8xj5ek3324ARqp8qp_LT8Co,32.9949762,-117.0821099,,7
Kilowatt Brewing,"7576 Clairemont Mesa Blvd, San Diego, CA 92111, USA",4.8,"['bar', 'food', 'point_of_interest', 'establishment']",ChIJxfzHLZr_24ARBBf_TW0iiWw,32.8331085,-117.1563692,,8
Scripps Memorial Hospital Sculpture Parks,"9888 Genesee Ave, La Jolla, CA 92037, USA",3.8,"['hospital', 'point_of_interest', 'establishment']",ChIJK1n7it4G3IARtIq4C6lYJ2I,32.8849805,-117.2254782,,7
Ark Antiques,"7620 Girard Ave, La Jolla, CA 92037, USA",5.0,"['home_goods_store', 'store', 'point_of_interest', 'establishment']",ChIJvylJeuMD3IARxx-e59-Hzes,32.8425348,-117.2735592,,7
San Diego Police Museum,"4710 College Ave, San Diego, CA 92115, USA",4.0,"['museum', 'point_of_interest', 'establishment']",ChIJUwKOrJBW2YARsJqjG2xYFss,32.7628686,-117.0672051,,12
Seven Caves Spirits,"7950 Stromesa Ct, San Diego, CA 92126, USA",5.0,"['point_of_interest', 'establishment']",ChIJqwyHUsj424ARHALk-2i-AXw,32.892932,-117.147766,,4
